stop_id,stop_name,stop_desc,stop_lat,stop_lon
0001,CARICAMENTO/ACQUARIO,0001,44.410671,8.928418
0003,GRAMSCI 1/METRO' DARSENA,0003,44.413353,8.926338
0004,GRAMSCI 2/STATUTO,0004,44.414719,8.924177
0005,GRAMSCI 3/COMMENDA,0005,44.415524,8.922028
0006,MARITTIMA/PRINCIPE FS,0006,44.415497,8.919490
0007,BUOZZI 1/PIAZZA SAN TEODORO,0007,44.414341,8.913108
0008,BUOZZI 2/METRO' DINEGRO,0008,44.413555,8.911274
0009,FRANCIA 2/MATITONE,0009,44.410469,8.905462
0010,FRANCIA 3/STAZIONE FS,0010,44.409126,8.900817
0011,BURANELLO 1/BARABINO,0011,44.409058,8.896314
0012,BURANELLO 2/GIOVANETTI,0012,44.410545,8.891861
0013,AVIO 1/MOLTENI,0013,44.411911,8.887004
0014,PACINOTTI/FIUMARA,0014,44.414124,8.883791
0015,PIERAGOSTINI/FIUMARA,0015,44.414883,8.881797
0016,CORNIGLIANO 1/GIARDINI MELIS,0016,44.416161,8.874476
0017,CORNIGLIANO 2/RIZZOLIO,0017,44.415894,8.871612
0018,CORNIGLIANO 3/PIAZZA CONTI,0018,44.415539,8.867748
0019,CORNIGLIANO 4/STAZIONE FS,0019,44.415333,8.865022
0020,SIFFREDI 2/ACCIAIO,0020,44.420128,8.858760
0021,SIFFREDI 3/CALCINARA,0021,44.421318,8.857109
0022,HERMADA/MENOTTI,0022,44.423405,8.852964
0023,PUCCINI 1/AEROPORTO,0023,44.422310,8.849436
0024,PUCCINI 2/SESTRI FS,0024,44.423138,8.846321
0025,SOLIMAN/CERRUTI,0025,44.424400,8.844149
0026,MERANO 1/VILLA ROSSI,0026,44.426167,8.843225
0027,MERANO 2/MONFALCONE,0027,44.426838,8.840454
0028,MERANO 3/AMIU,0028,44.427467,8.835768
0029,MULTEDO/VILLA CHIESA,0029,44.426220,8.830168
0030,RONCHI/VIGILI DEL FUOCO,0030,44.425667,8.826967
0031,LUNGOMARE DI PEGLI 1/VARENNA,0031,44.424885,8.821196
0032,LUNGOMARE2/FS-MUSEIPALLAVICINI,0032,44.424919,8.816158
0033,PEGLI 1/PORTICCIOLO,0033,44.424641,8.812321
0034,PEGLI 2/RISVEGLIO,0034,44.423584,8.807083
0035,PEGLI 4/LIDO,0035,44.424404,8.801941
0036,PEGLI 5/CASTELLUCCIO,0036,44.424843,8.799378
0037,PRA' 2/FERRIERE,0037,44.425941,8.793636
0038,PRA' 3/PRA' FS,0038,44.426579,8.789221
0039,PRA' 5/CORDANIERI,0039,44.427071,8.785978
0040,PRA' 6/LAURA,0040,44.427517,8.779722
0041,PRA' 7/PALMARO CENTRO,0041,44.427505,8.773957
0042,PRA' 8/DE MARI,0042,44.427868,8.771554
0043,PRA' 9/VILLA PODESTA',0043,44.428131,8.766548
0044,PRA' 10/VERRINA,0044,44.428413,8.762185
0045,VOLTRI/VOLTRI FS,0045,44.428898,8.759127
0046,VERITA'/VOLTRI FS,0046,44.428482,8.755344
0047,CAMOZZINI 1/VILLA DUCHESSA,0047,44.428448,8.750944
0048,CAMOZZINI 2/PRATI,0048,44.428612,8.747858
0049,CAMOZZINI 3/CADUTI,0049,44.428143,8.745120
0050,CAMOZZINI/CAPOLINEA,0050,44.427376,8.743212
0051,CAMOZZINI 2/CADUTI,0051,44.428169,8.745475
0052,CAMOZZINI 3/ODICINI,0052,44.428463,8.749455
0053,CAMOZZINI 4/VILLA DUCHESSA,0053,44.428284,8.751525
0054,VERITA'/VOLTRI FS,0054,44.428379,8.755668
0055,VOLTRI/VOLTRI FS,0055,44.428684,8.760027
0056,PRA' 1/VERRINA,0056,44.428131,8.763851
0057,PRA' 2/VILLA PODESTA',0057,44.427986,8.767262
0058,PRA' 3/DE MARI,0058,44.427792,8.771286
0059,PRA' 4/PALMARO CENTRO,0059,44.427322,8.774429
0060,PRA' 5/LAURA,0060,44.427330,8.779619
0061,PRA' 6/CORDANIERI,0061,44.426823,8.786268
0062,PRA' 7/PRA' FS,0062,44.426498,8.789277
0063,PRA' 8/FERRIERE,0063,44.425789,8.793674
0064,PEGLI 1/CASTELLUCCIO,0064,44.424618,8.800028
0065,PEGLI 2/LIDO,0065,44.424004,8.803532
0066,PEGLI 3/RISVEGLIO,0066,44.423210,8.807417
0067,PEGLI 4/PORTICCIOLO,0067,44.424625,8.812596
0068,LUNGOMARE1/FS-MUSEIPALLAVICINI,0068,44.424919,8.816893
0069,LUNGOMARE DI PEGLI 2/VARENNA,0069,44.424679,8.819118
0070,RONCHI/VIGILI DEL FUOCO,0070,44.425312,8.825922
0071,MULTEDO/VILLA CHIESA,0071,44.426029,8.831294
0072,MERANO 1/AMIU,0072,44.427319,8.836301
0073,MERANO 2/MONFALCONE,0073,44.426651,8.840718
0074,MERANO 3/VILLA ROSSI,0074,44.426056,8.843132
0075,MENOTTI 2/CHIESA,0075,44.424252,8.849061
0076,MENOTTI 3/HERMADA,0076,44.423378,8.852268
0077,SIFFREDI 1/CALCINARA,0077,44.421535,8.856711
0078,SIFFREDI 2/ACCIAIO,0078,44.420303,8.858294
0079,CORNIGLIANO 1/STAZIONE FS,0079,44.415337,8.866675
0080,CORNIGLIANO 2/PIAZZA CONTI,0080,44.415539,8.868695
0081,CORNIGLIANO 4/RIZZOLIO,0081,44.415905,8.872672
0082,CORNIGLIANO 5/MASSENA,0082,44.416164,8.875899
0083,PIERAGOSTINI/FIUMARA,0083,44.414421,8.883149
0084,PACINOTTI/FIUMARA,0084,44.412739,8.884516
0085,AVIO/MOLTENI,0085,44.411839,8.886524
0086,CANTORE 1/MONTANO,0086,44.412663,8.889579
0087,CANTORE 2/LA SPEZIA,0087,44.411552,8.893598
0088,CANTORE 4/S.B. DEL FOSSATO,0088,44.410374,8.898428
0089,CANTORE 6/MATITONE,0089,44.411728,8.906962
0090,DINEGRO/TERMINAL TRAGHETTI,0090,44.412426,8.909649
0091,BUOZZI/METRO' DINEGRO,0091,44.413937,8.912330
0092,MARITTIMA/PRINCIPE FS,0092,44.415249,8.918525
0093,GRAMSCI 2/METRO' DARSENA,0093,44.413757,8.925360
0094,THAON DI REVEL/BRIGNOLE FS,0094,44.405773,8.945749
0096,AVIO/FIUMARA,0096,44.412113,8.885444
0097,SULFUREE 1/AUTOSTRADA,0097,44.428444,8.769557
0099,FIRENZE 7/CARBONARA,0099,44.414932,8.933002
0100,DINEGRO/TERMINAL TRAGHETTI,0100,44.412346,8.909227
0101,CANTORE 2/COL,0101,44.411095,8.904682
0102,CANTORE 3/S.B. DEL FOSSATO,0102,44.410545,8.898829
0103,CANTORE 5/VILLA SCASSI,0103,44.411552,8.895111
0104,CANTORE 6/RONCO,0104,44.412224,8.891920
0105,MONTANO/SAMPIERDARENA FS,0105,44.413094,8.888226
0107,SAMPIERDARENA 1/MOLTENI,0107,44.410866,8.885847
0108,SAMPIERDARENA 2/DELLA CELLA,0108,44.409626,8.890583
0109,BARABINO/BURANELLO,0109,44.408524,8.897612
0110,FRANCIA 1/WTC,0110,44.408901,8.900669
0111,PINETTI 3/,0111,44.420563,8.969794
0112,PRINCIPE FS/CAPOLINEA,0112,44.416748,8.921897
0113,DORIA/METRO' PRINCIPE,0113,44.416401,8.919827
0114,SAN BENEDETTO/AMBA ALAGI,0114,44.415695,8.915779
0115,FRANCIA 2/TERMINAL TRAGHETTI,0115,44.410858,8.908074
0116,BRIGNOLE FS/CAPOLINEA,0116,44.406235,8.946278
0117,BRIGATA BISAGNO/CADORNA,0117,44.403614,8.946648
0118,SAFFI 1/QUESTURA,0118,44.399860,8.944535
0119,SAFFI 2/PESCATORI,0119,44.397751,8.943312
0120,SAFFI 3/MUSEO VILLA CROCE,0120,44.397724,8.939131
0121,SAFFI 4/FIODOR,0121,44.398548,8.935355
0122,QUADRIO 1/ORTIZ,0122,44.402405,8.931291
0123,QUADRIO 2/MARINA,0123,44.403652,8.930035
0124,CAVOUR/MERCATO DEL PESCE,0124,44.406082,8.927784
0125,SOLIMAN/MENOTTI,0125,44.425274,8.844291
0126,CAVOUR/MERCATO DEL PESCE,0126,44.406166,8.927540
0127,QUADRIO/MARINA,0127,44.404083,8.929409
0128,SAFFI 2/RIVOLI,0128,44.400387,8.932667
0129,SAFFI 3/FIODOR,0129,44.398052,8.936442
0130,SAFFI 4/MUSEO VILLA CROCE,0130,44.397503,8.939615
0131,SAFFI 5/PESCATORI,0131,44.397152,8.942930
0132,SAFFI 6/QUESTURA,0132,44.399876,8.944705
0133,DIAZ 2/PIAZZA DELLA VITTORIA,0133,44.401978,8.943299
0134,FIUME/THAON DI REVEL,0134,44.405602,8.944901
0135,ARIMONDI/POLI,0135,44.495522,8.904432
0136,BRIN/METRO',0136,44.428783,8.894324
0137,CANEPARI 1/BRIN,0137,44.429260,8.893430
0138,CANEPARI 2/DANDOLO,0138,44.432064,8.893199
0139,CANEPARI 3/PIOMBELLI,0139,44.433598,8.893046
0140,PALLAVICINI/VEZZANI,0140,44.437355,8.892681
0141,RIVAROLO 1/CARNIA,0141,44.441113,8.891954
0142,RIVAROLO 2/LANZA,0142,44.443691,8.892908
0143,RIVAROLO 3/CENTRO COMMERCIALE,0143,44.446548,8.893775
0144,RIVAROLO 4/TEGLIA,0144,44.448002,8.894126
0145,RIVARA/MONTE SEI BUSI,0145,44.450237,8.894227
0146,TEGLIA 1/MARITANO,0146,44.452477,8.894994
0147,RETA 1/GIRO DEL VENTO,0147,44.454838,8.898416
0148,RETA 2/VIGILI DEL FUOCO,0148,44.456860,8.900262
0149,RISSOTTO/BOLZANETO FS,0149,44.458794,8.901352
0150,COLANO/OSPEDALE PASTORINO,0150,44.463352,8.902409
0152,SARDORELLA 1/MERCATO,0152,44.467094,8.906243
0153,BRIGNOLE FS/CAPOLINEA,0153,44.405876,8.946848
0154,MORASSO/CAPOLINEA,0154,44.470024,8.904849
0155,FERRIERE BRUZZO 2/BRATTE,0155,44.465172,8.904472
0156,OSPEDALE PASTORINO/,0156,44.463226,8.901933
0157,RISMONDO/BOLZANETO FS,0157,44.459579,8.901665
0158,RETA 1/BARCHETTA,0158,44.456116,8.899737
0159,RETA 2/GIRO DEL VENTO,0159,44.454895,8.897911
0160,TEGLIA 2/MARITANO,0160,44.451706,8.894308
0161,TEGLIA 3/RIVARA,0161,44.449802,8.894109
0162,RIVAROLO 1/TEGLIA,0162,44.447762,8.893959
0163,RIVAROLO 2/CENTRO COMMERCIALE,0163,44.445820,8.893405
0164,RIVAROLO 3/LANZA,0164,44.443836,8.892736
0165,RIVAROLO 4/CARNIA,0165,44.440956,8.891711
0166,PALLAVICINI/CELESIA,0166,44.437805,8.891871
0167,JORI 1/PONGOLI,0167,44.433445,8.892311
0168,JORI 2/DANDOLO,0168,44.431442,8.891844
0169,JORI 3/BRIN,0169,44.429058,8.892961
0170,CARICAMENTO/ACQUARIO,0170,44.410698,8.928346
0171,MONTANO/SAMPIERDARENA FS,0171,44.412857,8.888159
0172,RETI/STORACE,0172,44.415653,8.885813
0173,FILLAK 1/MASNATA,0173,44.418392,8.886233
0174,FILLAK 2/CAMPASSO,0174,44.420128,8.887485
0175,FILLAK 3/PORRO,0175,44.423897,8.890141
0176,FILLAK 4/CERTOSA,0176,44.426537,8.891953
0177,SAN QUIRICO 1/MORIGALLO,0177,44.470711,8.903480
0178,SAN QUIRICO 2/SERRO,0178,44.474514,8.900633
0179,SAN QUIRICO 3/PONTE BARBIERI,0179,44.476723,8.900637
0180,SAN QUIRICO 4/BUDULLI,0180,44.479996,8.900655
0181,SAN QUIRICO 5/RIO FULLE,0181,44.483334,8.900934
0182,SAN QUIRICO 6/CHIESA,0182,44.486465,8.900406
0183,SAN QUIRICO 7/FORESTALE,0183,44.489273,8.901564
0184,ANFOSSI 1/,0184,44.491989,8.904589
0185,ANFOSSI 2/PONTEDECIMO FS,0185,44.495098,8.905245
0186,ANFOSSI 3/POLI,0186,44.498001,8.904241
0187,PIAZZA PONTEDECIMO/DAL CANTO,0187,44.499508,8.903496
0188,GALLINO/CAPOLINEA,0188,44.500916,8.903881
0189,PIAZZA PONTEDECIMO/PERINO,0189,44.499771,8.903079
0190,ANFOSSI 1/POLI,0190,44.497135,8.904344
0191,ANFOSSI 3/PONTEDECIMO FS,0191,44.494076,8.905105
0192,ANFOSSI 4/,0192,44.492504,8.904777
0193,SAN QUIRICO 1/FORESTALE,0193,44.489944,8.902009
0194,SAN QUIRICO 2/CHIESA,0194,44.485798,8.900226
0195,SAN QUIRICO 3/RIO FULLE,0195,44.483089,8.900734
0196,SAN QUIRICO 4/PONTE BARBIERI,0196,44.476963,8.900521
0197,SAN QUIRICO 5/SERRO,0197,44.474461,8.900457
0198,SAN QUIRICO 6/MORIGALLO,0198,44.470333,8.903605
0199,FERRIERE BRUZZO 1/MERCATO,0199,44.466484,8.905774
0200,FILLAK 1/CERTOSA,0200,44.426903,8.892015
0201,FILLAK 2/PORRO,0201,44.422749,8.889144
0202,FILLAK 3/CAMPASSO,0202,44.419823,8.887070
0203,RETI 1/MASNATA,0203,44.417858,8.885687
0204,RETI 2/DEGOLA,0204,44.415188,8.885825
0207,TURATI/METRO' SAN GIORGIO,0207,44.408413,8.928285
0209,BRIGATA BISAGNO 1/BARABINO,0209,44.401489,8.946228
0210,BRIGATA BISAGNO 2/BUENOS AIRES,0210,44.402973,8.946938
0211,DUCA D'AOSTA/BRIGNOLE FS,0211,44.404850,8.947831
0212,CANEVARI/SANT'AGATA METRO',0212,44.408073,8.950083
0213,MORESCO 1/PIAZZA FIRPO,0213,44.411186,8.952993
0214,MORESCO 2/ROMAGNOSI,0214,44.413116,8.953156
0215,BOBBIO 1/SCALINATA MONTALDO,0215,44.416721,8.949235
0216,BOBBIO 2/PONTETTO,0216,44.418125,8.947805
0217,BOBBIO 3/DA PASSANO,0217,44.421539,8.946944
0218,BOBBIO 4/MONTALDO,0218,44.423439,8.947134
0219,BOBBIO 5/CADERIVA,0219,44.425343,8.947442
0220,PIACENZA 1/CIMITERO STAGLIENO,0220,44.427917,8.950526
0221,PIACENZA 3/ZUCCHE,0221,44.430470,8.957043
0222,PIACENZA 4/PONTE BEZZECCA,0222,44.432056,8.958695
0223,PIACENZA 5/PONTE VERONELLI,0223,44.434109,8.960802
0224,PIACENZA 6/PONTE CARREGA,0224,44.436298,8.962053
0225,PIACENZA 7/SAN SEBASTIANO,0225,44.438480,8.962470
0226,EMILIA 1/PONTE FERITORE,0226,44.442566,8.964284
0227,EMILIA 2/FOSSATO CICALA,0227,44.443550,8.965221
0228,EMILIA 3/SAN GOTTARDO,0228,44.445091,8.966940
0229,EMILIA 4/SCIORBA,0229,44.446411,8.968707
0230,EMILIA 5/FIDENZA,0230,44.447578,8.970243
0231,EMILIA 6/ROCCA,0231,44.449017,8.972068
0232,MOLASSANA 2/GEIRATO,0232,44.453945,8.979465
0233,MOLASSANA 3/GHERZI,0233,44.454460,8.982875
0234,MOLASSANA 4/BOSCO,0234,44.454350,8.986570
0235,MOLASSANA 5/COSTA DI SAN SIRO,0235,44.453636,8.989224
0236,STRUPPA 1/GIRO DEL FULLO,0236,44.452278,8.992024
0237,STRUPPA 2/SAN BAZA',0237,44.449646,8.993886
0238,STRUPPA 3/LIGORNA,0238,44.448593,8.997805
0239,STRUPPA 4/LUCARNO,0239,44.447811,9.000870
0240,STRUPPA 5/DORIA,0240,44.447491,9.003660
0241,STRUPPA 6/CRETO,0241,44.447971,9.006358
0242,STRUPPA 7/ROSATA,0242,44.448605,9.009386
0243,STRUPPA 8/TROSSARELLI,0243,44.449123,9.011849
0244,STRUPPA 9/CANOVA,0244,44.449715,9.015152
0245,STRUPPA 10/SUPPINI,0245,44.449654,9.017653
0246,PRATO/PIAN MARTELLO,0246,44.449593,9.021047
0247,STRUPPA 2/CANOVA,0247,44.449677,9.014094
0248,STRUPPA 3/TROSSARELLI,0248,44.449078,9.011209
0249,STRUPPA 4/ROSATA,0249,44.448547,9.008564
0250,STRUPPA 5/CRETO,0250,44.448166,9.006721
0251,STRUPPA 6/DORIA,0251,44.447575,9.003323
0252,STRUPPA 7/LUCARNO,0252,44.448185,8.999791
0253,STRUPPA 8/LIGORNA,0253,44.448853,8.997255
0254,STRUPPA 9/SAN BAZA',0254,44.449532,8.994637
0255,STRUPPA 10/GIRO DEL FULLO,0255,44.452305,8.992190
0256,MOLASSANA 1/COSTA DI SAN SIRO,0256,44.453884,8.988685
0257,MOLASSANA 2/BOSCO,0257,44.454670,8.985535
0258,MOLASSANA 3/GHERZI,0258,44.454498,8.982250
0259,MOLASSANA 4/GEIRATO,0259,44.453922,8.979012
0260,MOLASSANA 5/EMILIA,0260,44.451691,8.974543
0261,PIACENZA 1/ROCCA,0261,44.449051,8.970902
0262,PIACENZA 2/FIDENZA,0262,44.447659,8.968786
0263,PIACENZA 3/SAN GOTTARDO,0263,44.445999,8.966387
0264,PIACENZA 4/FOSSATO CICALA,0264,44.444344,8.964846
0265,PIACENZA 5/PONTE FERITORE,0265,44.442295,8.963534
0266,PIACENZA 6/SAN SEBASTIANO,0266,44.437775,8.962088
0267,PIACENZA 7/PONTE CARREGA,0267,44.436314,8.961922
0268,PIACENZA 8/PONTE VERONELLI,0268,44.434330,8.960876
0269,PIACENZA 9/PONTE BEZZECCA,0269,44.432476,8.958946
0270,PIACENZA 10/ZUCCHE,0270,44.430218,8.956495
0271,PIACENZA 12/CIMITERO STAGLIENO,0271,44.427879,8.949808
0272,BOBBIO 1/CADERIVA,0272,44.424603,8.947144
0273,BOBBIO 2/MONTALDO,0273,44.423256,8.946940
0274,BOBBIO 3/DA PASSANO,0274,44.420998,8.946746
0275,BOBBIO 4/PONTETTO,0275,44.417397,8.948155
0276,BOBBIO 5/STADIO,0276,44.416332,8.949742
0277,CANEVARI 1/ROMAGNOSI,0277,44.413521,8.951599
0278,CANEVARI 2/PIAZZA FIRPO,0278,44.410660,8.951988
0279,CANEVARI 4/SANT'AGATA METRO',0279,44.407364,8.949309
0280,DUCA D'AOSTA/BRIGNOLE FS,0280,44.404980,8.947266
0281,GNEO 1/MONTE TIMONE,0281,44.446148,8.853915
0283,BRIGATE PARTIGIANE 1/ASL,0283,44.397762,8.944540
0284,BRIGATE PARTIGIANE 2/RUSPOLI,0284,44.399567,8.945323
0285,GNEO 2/,0285,44.444111,8.854539
0286,BRIGATE PARTIGIANE 1/DIAZ,0286,44.399872,8.944887
0287,BRIGATE PARTIGIANE 2/ASL,0287,44.398418,8.944205
0288,MOLASSANA/CAPOLINEA,0288,44.454353,8.979897
0289,GNEO 2/,0289,44.444187,8.854445
0290,IST NORD/CENTRO CONVEGNI,0290,44.410606,8.974499
0291,PIAZZA DANTE/,0291,44.405136,8.936207
0292,MACAGGI/CESAREA,0292,44.402153,8.942230
0293,CADORNA/PIAZZA DELLA VITTORIA,0293,44.404640,8.944925
0294,XX SETTEMBRE 1/MERC. ORIENTALE,0294,44.405487,8.941456
0295,XX SETTEMBRE 2/PORTORIA,0295,44.406406,8.937679
0296,RESASCO/CAPOLINEA,0296,44.428837,8.953274
0298,BUENOS AIRES 1/LAMBRUSCHINI,0298,44.403675,8.948204
0299,BUENOS AIRES 2/CASAREGIS,0299,44.402599,8.952048
0300,TOMMASEO/MONTESUELLO,0300,44.402020,8.953762
0301,POZZO 1/DASSORI,0301,44.402950,8.955849
0302,POZZO 2/FASCE,0302,44.402767,8.956036
0303,POZZO 3/TRENTO,0303,44.400616,8.956691
0304,ALBARO/CAUSA,0304,44.399864,8.959701
0305,LEONARDO DA VINCI/,0305,44.397602,8.965063
0306,BOSELLI/GUERRAZZI,0306,44.396915,8.967501
0307,PISA/GIORDANO BRUNO,0307,44.395981,8.973269
0308,CAPRERA/ORSINI,0308,44.395294,8.975339
0309,GEIRATO 8/RIO LAGOLUNGO,0309,44.466278,8.987797
0310,MILLE/BRIGATA SALERNO,0310,44.393047,8.983822
0311,V MAGGIO 1/OSPEDALE GASLINI,0311,44.391052,8.989171
0312,V MAGGIO 2/CARRARA,0312,44.389751,8.991486
0313,V MAGGIO 3/VILLA CARRARA,0313,44.389229,8.993926
0314,V MAGGIO 4/QUARTO FS,0314,44.387661,8.995413
0315,QUARTO 1/PRIARUGGIA,0315,44.386768,8.998128
0316,QUARTO 2/CAPO SAN ROCCO,0316,44.386925,8.999772
0317,QUARTO 3/QUARTARA,0317,44.386555,9.002578
0318,QUARTO 4/FABRIZI,0318,44.385906,9.007751
0319,QUINTO/BAGNARA,0319,44.385590,9.012631
0320,GIANELLI 1/BOLZANO,0320,44.385002,9.016411
0321,GIANELLI 2/QUINTO FS,0321,44.384243,9.019882
0322,MURCAROLO/ROMANA DI MURCAROLO,0322,44.383163,9.024618
0323,OBERDAN 1/SANTAROSA,0323,44.382870,9.028675
0324,OBERDAN 2/PONTE DI NERVI,0324,44.384865,9.032849
0325,OBERDAN 4/DUCA DEGLI ABRUZZI,0325,44.384300,9.035650
0326,FRANCHINI/CAPOLINEA,0326,44.384434,9.040300
0327,OBERDAN 1/DUCA DEGLI ABRUZZI,0327,44.384460,9.035469
0328,OBERDAN 2/PONTE DI NERVI,0328,44.385056,9.032928
0329,OBERDAN 4/SANTAROSA,0329,44.383076,9.029015
0330,GIANELLI 1/ROMANA DI MURCAROLO,0330,44.383419,9.023978
0331,GIANELLI 2/QUINTO FS,0331,44.384392,9.019631
0332,GIANELLI 3/BOLZANO,0332,44.385033,9.016739
0333,QUINTO/BAGNARA,0333,44.385483,9.011838
0334,QUARTO 1/FABRIZI,0334,44.386078,9.007276
0335,QUARTO 2/QUARTARA,0335,44.386593,9.002425
0336,QUARTO 3/CAPO SAN ROCCO,0336,44.387024,9.000925
0337,V MAGGIO 1/PRIARUGGIA,0337,44.387646,8.997337
0338,V MAGGIO 2/QUARTO FS,0338,44.388340,8.994505
0339,V MAGGIO 3/VILLA CARRARA,0339,44.389709,8.992446
0340,V MAGGIO 4/CARRARA,0340,44.390064,8.991112
0341,V MAGGIO 6/OSPEDALE GASLINI,0341,44.391472,8.988017
0342,V MAGGIO 7/REDIPUGLIA,0342,44.392323,8.985615
0343,PIAZZA STURLA/CAPRERA,0343,44.394924,8.979808
0344,CAPRERA/ORSINI,0344,44.395439,8.975319
0345,PISA/AMALFI,0345,44.396233,8.972657
0346,BOSELLI/GUERRAZZI,0346,44.396839,8.968594
0347,LEONARDO DA VINCI/,0347,44.397915,8.964725
0348,ALBARO/CAUSA,0348,44.400185,8.958944
0349,POZZO 1/TRENTO,0349,44.400898,8.956008
0350,POZZO 2/FASCE,0350,44.402802,8.956341
0351,POZZO 3/DASSORI,0351,44.403122,8.955886
0352,TOMMASEO/MONTESUELLO,0352,44.402229,8.953762
0353,BUENOS AIRES 1/DA NOVI,0353,44.403126,8.950571
0354,BUENOS AIRES 2/LAMBRUSCHINI,0354,44.403740,8.948375
0355,DANTE 2/CASA DI COLOMBO,0355,44.405701,8.935208
0356,IST NORD/CENTRO CONVEGNI,0356,44.410839,8.974246
0357,GEIRATO 1/RIO LAGOLUNGO,0357,44.466129,8.987511
0359,GNEO 3/MONTE TIMONE,0359,44.446232,8.853975
0360,BRIGNOLE FS/,0360,44.405956,8.947030
0361,INVREA/CASAREGIS,0361,44.404209,8.952478
0362,ODESSA/ALIMONDA,0362,44.403755,8.955333
0363,GASTALDI 1/PONTE DI TERRALBA,0363,44.404659,8.959888
0364,GASTALDI 2/CASA DELLO STUDENTE,0364,44.404583,8.964451
0365,EUROPA 1/OSPEDALE SAN MARTINO,0365,44.406372,8.971339
0366,EUROPA 2/PRONTO SOCCORSO,0366,44.407631,8.975585
0367,EUROPA 3/PIAZZETTA,0367,44.405071,8.981376
0368,EUROPA 4/ISONZO,0368,44.402760,8.984275
0369,EUROPA 5/SWINBURNE,0369,44.399384,8.989305
0370,EUROPA 6/SHELLEY,0370,44.398716,8.991502
0371,EUROPA 7/CARRARA,0371,44.396397,8.993305
0372,EUROPA 8/PIAZZA NIEVO,0372,44.394390,8.996299
0373,EUROPA 9/SCHIAFFINO,0373,44.394272,9.001188
0374,EUROPA 10/QUARTO CASTAGNA,0374,44.394707,9.003425
0375,EUROPA 11/AUTOSTRADA,0375,44.393368,9.006823
0376,EUROPA 12/TOGLIATTI,0376,44.391994,9.009416
0377,EUROPA 13/MAJORANA,0377,44.389942,9.012329
0378,EUROPA 14/SAN PIETRO,0378,44.387558,9.016524
0379,EUROPA 15/QUINTO,0379,44.386105,9.019528
0380,EUROPA 16/CABRUNA,0380,44.385185,9.022980
0381,EUROPA 17/OSPEDALE DI NERVI,0381,44.384041,9.028093
0382,PITTALUGA/NERVI FS,0382,44.383766,9.040490
0383,CASOTTI/VILLA GROPALLO,0383,44.383064,9.043978
0384,CAPOLUNGO 1/VILLA SERRA,0384,44.382263,9.045805
0385,CAPOLUNGO 3/ANCONA,0385,44.381145,9.050247
0386,AURELIA 1/STAZIONE SANT'ILARIO,0386,44.381001,9.053036
0387,AURELIA 2/SOMMA,0387,44.380802,9.054993
0388,SOMMA 1/CAPOLUNGO,0388,44.382523,9.052378
0389,SOMMA 3/SANT'ILARIO,0389,44.383713,9.046923
0390,SOMMA 4/RAVINA,0390,44.385101,9.043110
0391,SOMMA 5/VASSALLI,0391,44.385231,9.039595
0392,SOMMA 6/DUCA DEGLI ABRUZZI,0392,44.385227,9.037213
0393,OBERDAN 3/PONTE DI NERVI,0393,44.384548,9.032179
0394,EUROPA 1/OSPEDALE DI NERVI,0394,44.384380,9.027522
0395,EUROPA 2/CABRUNA,0395,44.385376,9.022964
0396,EUROPA 3/QUINTO,0396,44.386330,9.019495
0397,EUROPA 4/SAN PIETRO,0397,44.387669,9.016805
0398,EUROPA 5/MAJORANA,0398,44.390495,9.011899
0399,EUROPA 6/TOGLIATTI,0399,44.392143,9.009666
0400,EUROPA 7/AUTOSTRADA,0400,44.394150,9.005889
0401,EUROPA 8/QUARTO CASTAGNA,0401,44.394993,9.002574
0402,EUROPA 9/SCHIAFFINO,0402,44.394257,8.999976
0403,EUROPA 10/PIAZZA NIEVO,0403,44.394615,8.996697
0404,EUROPA 11/CARRARA,0404,44.395607,8.993842
0405,EUROPA 12/SHELLEY,0405,44.398750,8.991272
0406,EUROPA 13/SWINBURNE,0406,44.399574,8.989015
0407,EUROPA 14/TIMAVO,0407,44.402973,8.983974
0408,EUROPA 15/PIAZZETTA,0408,44.405369,8.981163
0409,EUROPA 16/PRONTO SOCCORSO,0409,44.407505,8.975025
0410,EUROPA 17/OSPEDALE SAN MARTINO,0410,44.405910,8.970081
0411,GASTALDI 1/BENEDETTO XV,0411,44.404922,8.966658
0412,GASTALDI 2/CASA DELLO STUDENTE,0412,44.404713,8.964119
0413,GASTALDI 3/PONTE DI TERRALBA,0413,44.404793,8.958339
0414,TOLEMAIDE 1/TORINO,0414,44.404827,8.953150
0415,TOLEMAIDE 2/ARCHIMEDE,0415,44.405285,8.950356
0416,BRIGNOLE FS/,0416,44.406784,8.946188
0417,FIUME/XX SETTEMBRE,0417,44.404972,8.944442
0418,TOGLIATTI 4/CAMPO SPORTIVO,0418,44.396797,9.014654
0419,COMMERCIO/CAPOLINEA,0419,44.386181,9.031435
0420,BIANCHI 2/PERINI,0420,44.421875,8.883499
0422,THAON DI REVEL/BRIGNOLE FS,0422,44.405891,8.945290
0423,MOSSO/PRONTO SOCCORSO,0423,44.408249,8.975184
0424,TORTI 1/BARRILI,0424,44.405941,8.966055
0425,TORTI 2/MANUZIO,0425,44.407181,8.963319
0426,TORTI 3/TERRALBA,0426,44.407352,8.960487
0427,MARTINEZ/GIACOMETTI,0427,44.406940,8.956548
0428,GIUSTI/SARDEGNA,0428,44.407555,8.952476
0429,BUFFA 2/VERITA',0429,44.428902,8.758564
0430,ROMA/CORVETTO,0430,44.409660,8.937420
0431,PORTELLO/CAFFARO,0431,44.411640,8.934018
0432,ZECCA/CARMINE,0432,44.413303,8.930087
0433,PRINCIPE FS/,0433,44.416389,8.922140
0435,NUNZIATA/,0435,44.413696,8.928207
0436,PORTELLO/INTERIANO,0436,44.411446,8.934340
0437,GIACOMO E FILIPPO/CORVETTO,0437,44.409939,8.939283
0438,DE AMICIS/PIAZZA BRIGNOLE,0438,44.408478,8.944423
0439,BRIGNOLE FS/,0439,44.406143,8.946972
0441,GIACOMETTI/PIAZZA GIUSTI,0441,44.407051,8.954124
0442,MARTINEZ/CASONI,0442,44.406487,8.956861
0443,TERRALBA/TORTI,0443,44.407082,8.961026
0444,TORTI/DONGHI,0444,44.406837,8.964657
0445,BARRILI/TORTI,0445,44.405704,8.966062
0446,SAN MARTINO 1/UNIVERSITA',0446,44.404789,8.967895
0447,SAN MARTINO 2/PAPIGLIANO,0447,44.405697,8.970962
0448,SAN MARTINO 3/RAI,0448,44.406208,8.973002
0449,LAGUSTENA 1/CHIESA SAN MARTINO,0449,44.405567,8.976123
0450,OSPEDALE SAN MARTINO/CAPOLINEA,0450,44.406322,8.968750
0451,PRINCIPE FS/CAPOLINEA,0451,44.416679,8.922197
0452,FANTI D'ITALIA/PRINCIPE FS,0452,44.416344,8.918820
0453,PERINI/CAMPI,0453,44.423012,8.883479
0455,FONTANE MAROSE/,0455,44.410248,8.934989
0456,DEGOLA/JURSE',0456,44.414364,8.884101
0458,ROBINO 1/AMEGLIO,0458,44.419518,8.957111
0459,XX SETTEMBRE 2/MONUMENTALE,0459,44.406006,8.938934
0460,XX SETTEMBRE 3/MERC. ORIENTALE,0460,44.405365,8.941594
0461,CADORNA/PIAZZA DELLA VITTORIA,0461,44.404579,8.944677
0462,TORINO 2/SAVONAROLA,0462,44.402115,8.950682
0463,TORINO 3/BARABINO,0463,44.400196,8.949772
0464,TORINO 4/RUSPOLI,0464,44.398331,8.948900
0465,RIMASSA/MORIN,0465,44.396885,8.948444
0466,TORINO 1/RUSPOLI,0466,44.398445,8.949080
0467,TORINO 2/BARABINO,0467,44.400181,8.949903
0469,MONTANO/SAMPIERDARENA FS,0469,44.412750,8.888113
0471,TRAVI 2/MENOTTI,0471,44.423912,8.849148
0472,BORZOLI 1/SAN NICOLA,0472,44.423645,8.854797
0473,SPARTA/,0473,44.425125,8.857036
0474,SANT'ELIA 1/SANTA CRISTINA,0474,44.425385,8.858531
0475,SANT'ELIA 2/,0475,44.425972,8.858663
0476,SANT'ELIA 3/,0476,44.425198,8.860040
0477,SANT'ELIA 4/,0477,44.425663,8.861947
0478,SANT'ELIA 2/,0478,44.425320,8.859914
0479,SANT'ELIA 3/,0479,44.425983,8.858505
0480,SANT'ELIA 4/SANTA CRISTINA,0480,44.425354,8.858048
0481,SPARTA/,0481,44.424976,8.856797
0482,BORZOLI 12/SAN NICOLA,0482,44.423534,8.854503
0483,TRAVI 1/SESTRI FS AEROPORTO,0483,44.422928,8.848654
0484,MARCONI 1/FIERA,0484,44.396019,8.944441
0485,MARCONI 2/RIMASSA,0485,44.395145,8.948105
0486,ITALIA 1/PUNTA VAGNO,0486,44.393105,8.951195
0487,ITALIA 2/PIAVE,0487,44.392036,8.954434
0488,ITALIA 3/ZARA,0488,44.391838,8.958113
0489,ITALIA 4/SAURO,0489,44.392780,8.962693
0490,ITALIA 5/LIDO,0490,44.390915,8.968473
0491,CAVALLOTTI 1/DE GASPARI,0491,44.391754,8.974620
0492,CAVALLOTTI 2/CAPRERA,0492,44.394665,8.975681
0494,CAVALLOTTI 1/MONLEONE,0494,44.394268,8.975348
0495,CAVALLOTTI 2/BOCCADASSE,0495,44.390720,8.974048
0496,ITALIA 1/LIDO,0496,44.391132,8.968610
0497,ITALIA 2/SAURO,0497,44.393013,8.962355
0498,ITALIA 3/ZARA,0498,44.391953,8.957679
0499,ITALIA 5/PIAVE,0499,44.392635,8.953136
0500,ITALIA 6/PUNTA VAGNO,0500,44.393669,8.950922
0501,MARCONI 1/RIMASSA,0501,44.395378,8.948206
0502,MARCONI 2/FIERA,0502,44.396152,8.945263
0504,FIESCHI/DANTE,0504,44.405384,8.936727
0506,CARIGNANO/ALGHERO,0506,44.402096,8.934180
0508,DINEGRO/MERCATO,0508,44.413143,8.910265
0509,VENEZIA 1/SOPRANIS,0509,44.416157,8.910198
0510,VENEZIA 2/ALIZERI,0510,44.417873,8.910115
0511,BOLOGNA 1/SAN MARCELLINO,0511,44.418381,8.909151
0512,BOLOGNA 2/FAENZA,0512,44.419044,8.907685
0513,BOLOGNA 3/PESTARINO,0513,44.419960,8.909019
0514,BOLOGNA 5/LUGO,0514,44.419205,8.911777
0515,S.F. DA PAOLA/,0515,44.419327,8.914950
0516,BOLOGNA 1/LUGO,0516,44.419064,8.911373
0517,BOLOGNA 3/PESTARINO,0517,44.420097,8.909247
0518,BOLOGNA 4/FAENZA,0518,44.419167,8.907535
0519,BOLOGNA 5/SAN MARCELLINO,0519,44.418465,8.909170
0520,VENEZIA 1/ALIZERI,0520,44.417603,8.910272
0521,VENEZIA 2/SOPRANIS,0521,44.415695,8.909990
0522,DINEGRO/MERCATO,0522,44.413013,8.909683
0523,BRIGNOLE FS/CAPOLINEA,0523,44.405991,8.946501
0525,ASSAROTTI 2/PROVVEDITORATO,0525,44.412193,8.943281
0526,MANIN/ARMELLINI,0526,44.414181,8.946736
0527,ARMELLINI/ISTITUTO CHIOSSONE,0527,44.413437,8.944136
0528,SOLFERINO/OSPEDALE EVANGELICO,0528,44.413971,8.941111
0529,MAGENTA 1/SANTA MARIA SANITA',0529,44.413498,8.938305
0530,MAGENTA 2/SANT'ANNA,0530,44.414711,8.937021
0531,PAGANINI/PONTE CAFFARO,0531,44.415855,8.935343
0532,VILLA/SPIANATA CASTELLETTO,0532,44.414528,8.933499
0533,FIRENZE 2/GIARDINI ROSSI,0533,44.418102,8.934236
0534,FIRENZE 3/SALVAGO,0534,44.418297,8.932903
0535,FIRENZE 4/SAN NICOLA,0535,44.419910,8.930878
0536,FIRENZE 5/PELLIZZARI,0536,44.420181,8.928679
0537,FIRENZE 6/SAN BARNABA,0537,44.418743,8.927850
0538,DOGALI 2/BASSI,0538,44.418827,8.924796
0539,BASSI 1/SPINOLA,0539,44.420288,8.925674
0540,BASSI 2/OSSERVATORIO,0540,44.419544,8.922672
0541,SANT'UGO/FERREIRA,0541,44.419323,8.923871
0542,PROVVIDENZA/AVEZZANA,0542,44.417831,8.921623
0543,PRINCIPE FS/CAPOLINEA,0543,44.416653,8.922299
0544,ASSAROTTI 1/CALATAFIMI,0544,44.410870,8.940281
0545,SANT'UGO/ALMERIA,0545,44.419384,8.924216
0546,ALMERIA/OSSERVATORIO,0546,44.419373,8.922905
0547,BASSI/GIARDINI MONTALE,0547,44.420174,8.925448
0548,FIRENZE 1/DOGALI,0548,44.418591,8.925359
0549,FIRENZE 2/SAN BARNABA,0549,44.418808,8.928041
0550,FIRENZE 3/PELLIZZARI,0550,44.420353,8.929170
0551,FIRENZE 4/SAN NICOLA,0551,44.419666,8.930932
0552,FIRENZE 5/SALVAGO,0552,44.418392,8.933315
0553,FIRENZE 6/GIARDINI ROSSI,0553,44.417873,8.933895
0554,VILLA/SPIANATA CASTELLETTO,0554,44.414429,8.933634
0555,MAGENTA 1/SANT'ANNA,0555,44.414726,8.937716
0556,MAGENTA 2/SANTA MARIA SANITA',0556,44.413219,8.938865
0557,SOLFERINO/OSPEDALE EVANGELICO,0557,44.413799,8.941260
0558,ARMELLINI 2/MANIN,0558,44.414001,8.946237
0559,ASSAROTTI/PESCHIERA,0559,44.411751,8.942055
0561,MONTALDO 1/DA PASSANO,0561,44.420853,8.945632
0562,MONTALDO 2/SALITA MELONI,0562,44.419075,8.946051
0563,MONTALDO 3/CHIAPPAZZO,0563,44.417133,8.947189
0564,MONTALDO 4/SCALINATA MONTALDO,0564,44.415600,8.948077
0565,MANIN/,0565,44.413826,8.946795
0566,CORVETTO/PIAGGIO,0566,44.410336,8.938220
0567,MOLASSANA 1/OLMO,0567,44.452923,8.977269
0568,PRINCIPE FS/,0568,44.416454,8.922449
0569,CANEVARI 3/MONTEGRAPPA,0569,44.408627,8.950347
0570,MANIN/,0570,44.413872,8.947151
0571,MONTALDO 1/SCALINATA MONTALDO,0571,44.415821,8.948156
0572,MONTALDO 2/CHIAPPAZZO,0572,44.417526,8.947046
0573,MONTALDO 3/SALITA MELONI,0573,44.419193,8.946155
0574,MONTALDO 4/DA PASSANO,0574,44.421074,8.945735
0575,MONTALDO 5/BOBBIO,0575,44.422741,8.946627
0576,VANNUCCI/MUSEO VILLA CROCE,0576,44.397743,8.939305
0577,MURA CAPPUCCINE/VANNUCCI,0577,44.397919,8.942709
0578,VOLTA 1/GALLIERA CUP,0578,44.399166,8.942429
0579,VOLTA 2/OSPEDALE GALLIERA,0579,44.401016,8.941443
0580,MURA DI SANTA CHIARA/ALESSI,0580,44.402618,8.939188
0581,CORSICA/BIXIO,0581,44.401119,8.937227
0582,INNOCENZO IV/CARIGNANO,0582,44.402496,8.935050
0583,ARSENALE/PRINCIPE FS,0583,44.416615,8.923287
0584,SPINOLA/BASSI,0584,44.421089,8.925753
0585,NAPOLI 1/SPINOLA,0585,44.422222,8.925999
0586,NAPOLI 2/SAPORITI,0586,44.420700,8.923437
0587,NAPOLI 3/BOINE,0587,44.421509,8.921539
0588,NAPOLI 4/GAETA,0588,44.422504,8.920211
0589,NAPOLI 5/VESUVIO,0589,44.424583,8.921498
0590,NAPOLI 6/SCUOLA MAZZA,0590,44.424843,8.919303
0591,PONTE DON ACCIAI/LAGACCIO,0591,44.425774,8.918007
0592,BARI 1/TARANTO,0592,44.424881,8.915174
0593,BARI 2/BRINDISI,0593,44.422504,8.916475
0594,BARI 4/ASCENSORE CREMAGLIERA,0594,44.420231,8.916130
0595,BARI 1/ASCENSORE CREMAGLIERA,0595,44.420475,8.916554
0597,BARI 3/TARANTO,0597,44.424927,8.915279
0598,PONTE DON ACCIAI/LAGACCIO,0598,44.425755,8.917686
0599,NAPOLI 1/SCUOLA MAZZA,0599,44.424740,8.919227
0600,NAPOLI 2/VESUVIO,0600,44.424450,8.921221
0601,NAPOLI 3/GAETA,0601,44.422859,8.919907
0602,NAPOLI 4/BOINE,0602,44.421402,8.921046
0603,NAPOLI 5/SAPORITI,0603,44.420654,8.923586
0604,NAPOLI 6/SPINOLA,0604,44.421856,8.925574
0605,CORSICA/MENTANA,0605,44.401455,8.937680
0606,MURA DI SANTA CHIARA/ALESSI,0606,44.402397,8.939355
0607,VOLTA 1/OSPEDALE GALLIERA,0607,44.400723,8.941485
0608,VOLTA 2/GALLIERA CUP,0608,44.399143,8.942336
0609,MURA CAPPUCCINE/VANNUCCI,0609,44.397827,8.942322
0610,VESUVIO 1/CHIESA,0610,44.426014,8.922843
0611,VESUVIO 2/CAPRI,0611,44.425484,8.920460
0612,VESUVIO/CAPOLINEA INFERIORE,0612,44.425564,8.919239
0613,VESUVIO 3/CAPRI,0613,44.425423,8.920434
0614,VESUVIO 4/CHIESA,0614,44.425682,8.922606
0617,NIZZA 1/SAN PIETRO,0617,44.394558,8.950595
0618,NIZZA 2/SCALINATA GUERRIERI,0618,44.398144,8.952333
0620,NIZZA 1/SCALINATA GUERRIERI,0620,44.397976,8.951900
0621,NIZZA 2/SAN PIETRO,0621,44.394394,8.950876
0623,BATTISTI/SCUOLE,0623,44.395283,8.952737
0624,MERANI/CAPOLINEA,0624,44.397213,8.953147
0625,TRENTO/CADORE,0625,44.396610,8.951513
0626,TORINO 4/TOLEMAIDE,0626,44.404594,8.951954
0627,SARDEGNA 1/PIAZZA GIUSTI,0627,44.407738,8.953396
0628,SARDEGNA 2/CHIESA SANTA FEDE,0628,44.411518,8.955336
0629,SARDEGNA 3/BONIFACIO,0629,44.413460,8.956271
0630,DE STEFANIS 1/MONTICELLI,0630,44.415630,8.955760
0631,DE STEFANIS 2/BERTUCCIONI,0631,44.416813,8.954243
0633,RICCA/SALITA SPAGNOLETTA,0633,44.418560,8.954102
0634,PLATANI/SCUOLA,0634,44.420109,8.952446
0635,RICCA/SALITA SPAGNOLETTA,0635,44.418503,8.954576
0636,BERTUCCIONI 1/GUICCIARDINI,0636,44.418377,8.956275
0637,BERTUCCIONI 2/DE STEFANIS,0637,44.417202,8.954220
0638,DE STEFANIS 5/MONTICELLI,0638,44.415524,8.955670
0639,SARDEGNA 1/BONIFACIO,0639,44.413612,8.955971
0640,SARDEGNA 2/CAGLIARI,0640,44.412178,8.955282
0641,SARDEGNA 3/NICOLODI,0641,44.410339,8.954412
0642,ARCHIMEDE/ASL,0642,44.406872,8.952134
0644,GUICCIARDINI/PASSO BRACELLI,0644,44.418457,8.956996
0645,MONTICELLI 2/SARDEGNA,0645,44.414913,8.956020
0646,SAN MARINO 1/FERRARA,0646,44.422050,8.908838
0647,SAN MARINO 2/,0647,44.423992,8.908557
0648,SAN MARINO 3/MARZABOTTO,0648,44.426022,8.908432
0649,CADUTI SENZA CROCE/,0649,44.426331,8.908828
0650,GRANAROLO/CAPOLINEA,0650,44.424763,8.911155
0651,CADUTI SENZA CROCE/,0651,44.426601,8.908382
0652,SAN MARINO 1/MARZABOTTO,0652,44.425289,8.908689
0653,SAN MARINO 2/,0653,44.423828,8.908360
0654,FERRARA/,0654,44.421505,8.909194
0655,BRIGNOLE FS/CAPOLINEA,0655,44.406189,8.946084
0656,NUNZIATA/BANDIERA,0656,44.413979,8.928628
0657,BRIGNOLE DE FERRARI/CARMINE,0657,44.414871,8.929099
0658,ALBERGO DEI POVERI/UNIVERSITA',0658,44.417259,8.928877
0659,DOGALI 1/KASSALA,0659,44.417843,8.926426
0660,SAPORITI/NAPOLI,0660,44.421837,8.925297
0661,PALEOCAPA 1/BASSANO,0661,44.423645,8.927374
0662,PALEOCAPA 2/PIAZZA OREGINA,0662,44.423382,8.925000
0663,CARBONE/CASACCIA,0663,44.425312,8.927393
0664,DELLA CELLA/MACULANO,0664,44.425690,8.927056
0665,BALESTRAZZI 1/BELVEDERE,0665,44.424919,8.924459
0666,BALESTRAZZI 2/ISCHIA,0666,44.426651,8.925156
0667,VESUVIO 1/PERALTO,0667,44.428688,8.924310
0668,VESUVIO 2/CASE INA,0668,44.427204,8.922304
0669,VESUVIO/CAPOLINEA SUPERIORE,0669,44.426472,8.920769
0670,VESUVIO 3/CASE INA,0670,44.427433,8.922912
0671,VESUVIO 4/PERALTO,0671,44.428692,8.924623
0672,BALESTRAZZI/ISCHIA,0672,44.426556,8.925030
0674,DELLA CELLA/MACULANO,0674,44.425785,8.927478
0675,CARBONE/CASACCIA,0675,44.425175,8.926969
0676,PALEOCAPA 1/PIAZZA OREGINA,0676,44.423409,8.925207
0677,PALEOCAPA 2/BASSANO,0677,44.423405,8.927147
0678,SAPORITI/NAPOLI,0678,44.421745,8.925097
0679,DOGALI 1/BASSI,0679,44.418301,8.925467
0680,ALBERGO DEI POVERI/UNIVERSITA',0680,44.417152,8.929235
0681,BRIGNOLE DE FERRARI/CARMINE,0681,44.414742,8.929525
0682,GIUSSO 1/BELVEDERE,0682,44.424877,8.924775
0683,COSTANZI 1/GIUSSO,0683,44.427063,8.927167
0684,COSTANZI 3/FUMAGALLI,0684,44.427986,8.927876
0685,COSTANZI 4/OSTELLO,0685,44.428093,8.928649
0686,BELVEDERE DA PASSANO/GIUSSO,0686,44.424492,8.924399
0687,ORSINI 1/CAPRERA,0687,44.395401,8.975897
0688,ORSINI 2/SAN PIO X,0688,44.398479,8.975933
0689,ORSINI 3/PARODI,0689,44.400337,8.975631
0690,ORSINI 4/STURLA,0690,44.401676,8.977697
0691,STURLA 3/MARRAS,0691,44.399643,8.978873
0692,ISONZO 1/STURLA FS,0692,44.397621,8.980932
0693,RAGAZZI DEL 99/CAPOLINEA,0693,44.399548,8.981579
0694,ISONZO 3/STURLA FS,0694,44.397293,8.980710
0695,STURLA 2/MARRAS,0695,44.399879,8.979075
0696,ORSINI 1/STURLA,0696,44.401695,8.977445
0697,ORSINI 2/PARODI,0697,44.400314,8.975305
0698,ORSINI 3/SAN PIO X,0698,44.398853,8.975461
0699,RIBALDONE/AUTOSTRADA,0699,44.393421,9.006257
0700,DIAZ/BRIGATE PARTIGIANE,0700,44.400738,8.946275
0701,BARABINO/TORINO,0701,44.399990,8.949325
0702,PALERMO/PARETO,0702,44.399155,8.952721
0703,ROSSELLI 1/PIAVE,0703,44.394566,8.955100
0704,ROSSELLI 2/ZARA,0704,44.394009,8.957482
0705,GOBETTI/SAURO,0705,44.394238,8.960878
0706,RIGHETTI/MINZONI,0706,44.394123,8.966993
0707,DE GASPARI 1/BRUNO,0707,44.392723,8.970754
0708,DE GASPARI 2/BOCCADASSE,0708,44.391228,8.973881
0709,BRUNO 1/ITALIA,0709,44.390976,8.969612
0710,GUARDIA/GARRONE,0710,44.470303,8.896457
0711,RIGHETTI/PEROSI,0711,44.394218,8.967010
0712,GOBETTI 1/SAURO,0712,44.394398,8.961081
0713,GOBETTI 2/ZARA,0713,44.394043,8.958327
0714,ROSSELLI/PIAVE,0714,44.394966,8.955092
0715,BARABINO 1/PALERMO,0715,44.399548,8.951544
0716,BARABINO 3/CIPRO,0716,44.400692,8.946933
0717,BRIGATA LIGURIA 2/FIUME,0717,44.404385,8.944104
0718,THAON DI REVEL/BRIGNOLE FS,0718,44.405582,8.946454
0719,CORRIDONI 2/MONTALLEGRO,0719,44.403137,8.962925
0720,MONTEZOVETTO 1/CUS,0720,44.401367,8.964043
0721,MONTEZOVETTO 2/SCUOLE,0721,44.399193,8.964576
0724,BRIGATA SALERNO/ERA,0724,44.395653,8.984932
0725,ROMANA DI QUARTO 1/CEMBRANO,0725,44.398590,8.989033
0726,ROMANA DI QUARTO 2/FRANGIONI,0726,44.398197,8.990911
0727,CIMAROSA/GIOVANNI MAGGIO,0727,44.396343,8.993017
0728,ACCIAIO 1/MELEN,0728,44.421673,8.864875
0729,ACCIAIO 2/CAMPO SPORTIVO,0729,44.418797,8.860237
0730,SCHIAFFINO/NIEVO,0730,44.394230,8.998239
0731,PRASCA/CHIESA,0731,44.396469,8.997006
0732,CARRARA 1/PRASCA,0732,44.396709,8.996464
0733,CARRARA 2/TURR,0733,44.395653,8.994388
0734,ROMANA DI QUARTO 1/FRANGIONI,0734,44.398304,8.991807
0735,ROMANA DI QUARTO 2/CEMBRANO,0735,44.398808,8.988508
0736,ERA/BRIGATA SALERNO,0736,44.395584,8.984282
0737,LEONARDO DA VINCI/,0737,44.397861,8.965076
0738,MONTEZOVETTO 1/SCUOLE,0738,44.399414,8.964650
0739,MONTEZOVETTO 2/CUS,0739,44.401512,8.964131
0740,CORRIDONI 1/MONTALLEGRO,0740,44.403427,8.962943
0743,TOMMASEO/MONTEVIDEO,0743,44.402546,8.954541
0744,LAGUSTENA 2/MOSSO,0744,44.407654,8.977249
0745,BORGORATTI 1/SAPETO,0745,44.407593,8.979391
0746,BORGORATTI 2/BOERO,0746,44.405384,8.982349
0747,POSALUNGA 1/TIMAVO,0747,44.404366,8.984739
0748,POSALUNGA 2/SCUOLA,0748,44.406567,8.986989
0749,ROTONDA/CADIGHIARA,0749,44.408966,8.988523
0750,ROTONDA/CAPOLINEA,0750,44.408840,8.988448
0751,POSALUNGA 1/SCUOLA,0751,44.406544,8.986855
0752,POSALUNGA 2/TIMAVO,0752,44.404472,8.984807
0753,BORGORATTI 1/SAN ROCCO,0753,44.404930,8.983365
0754,BORGORATTI 2/SAPETO,0754,44.407623,8.979646
0755,LAGUSTENA/MOSSO,0755,44.407635,8.977103
0756,SAN MARTINO/PUGGIA,0756,44.405563,8.975372
0757,SCRIBANTI/SALITA DELLA NOCE,0757,44.406872,8.974908
0758,TOMMASEO/CAFFA,0758,44.402420,8.953586
0759,STURLA 1/SAN MARTINO,0759,44.405003,8.976063
0760,STURLA 2/ORSINI,0760,44.402008,8.978182
0761,STURLA 4/STURLA FS,0761,44.397114,8.980611
0762,STURLA 5/ISTITUTO KING,0762,44.396168,8.980927
0763,PIAZZA STURLA/CHIGHIZOLA,0763,44.394688,8.980854
0765,PIAZZA STURLA/CHIESA,0765,44.394875,8.980821
0766,STURLA 1/STURLA FS,0766,44.396637,8.981276
0767,STURLA 3/PRATOLONGO,0767,44.402794,8.978405
0768,DONGHI 1/CHIESA,0768,44.408192,8.966914
0769,DONGHI 2/MADONNETTA,0769,44.410694,8.969232
0770,DONGHI 3/MANZASCO,0770,44.412380,8.970257
0771,DONGHI/CAPOLINEA,0771,44.413025,8.972196
0772,DONGHI 1/MANZASCO,0772,44.412235,8.969838
0773,DONGHI 2/MADONNETTA,0773,44.410618,8.969089
0774,MANUZIO 1/GAULLI,0774,44.409451,8.966639
0775,MANUZIO 2/MARINA DI ROBILANT,0775,44.407948,8.964569
0776,MONTICELLI 1/CARLOFORTE,0776,44.414146,8.954437
0777,FEREGGIANO 1/GALILEO FERRARIS,0777,44.415611,8.957376
0779,FEREGGIANO 3/MORO,0779,44.418240,8.965193
0781,FEREGGIANO 1/MORO,0781,44.417992,8.965076
0782,FEREGGIANO 2/BIGA,0782,44.416725,8.960876
0783,FEREGGIANO 3/GALILEO FERRARIS,0783,44.415989,8.957750
0784,TEGLIA 2/INPS,0784,44.453602,8.895912
0785,GALLIERA 1/CARLOFORTE,0785,44.413456,8.953945
0786,GALLIERA 2/DON ORIONE,0786,44.411560,8.953955
0787,GALLIERA 3/MIGLIO,0787,44.409496,8.953185
0788,TEGLIA 1/INPS,0788,44.453384,8.895539
0789,BRIGATA LIGURIA 1/CAPOLINEA,0789,44.403698,8.943912
0790,TORINO 3/BUENOS AIRES,0790,44.403313,8.951392
0791,DE STEFANIS 3/STADIO,0791,44.418030,8.952843
0792,DE STEFANIS 4/COSTA,0792,44.420006,8.950335
0793,DE STEFANIS 5/PARENZO,0793,44.421692,8.948738
0794,ISTRIA 1/MERCATO,0794,44.423729,8.948356
0795,ISTRIA 2/GARRASSINI,0795,44.425053,8.948620
0796,ISTRIA 3/PONTE MONTEVERDE,0796,44.427567,8.952167
0797,ISTRIA 4/PASSERELLA,0797,44.429424,8.957075
0798,DALMAZIA 1/PONTE BEZZECCA,0798,44.431320,8.959319
0799,DALMAZIA 2/ADRIATICO,0799,44.433399,8.961644
0800,DALMAZIA 3/PONTE CARREGA,0800,44.435349,8.962923
0801,DALMAZIA 4/GUGLIELMETTI,0801,44.439041,8.963796
0802,DALMAZIA 5/PONTE FERITORE,0802,44.441040,8.964697
0803,ADAMOLI 1/SPALATO,0803,44.442696,8.965871
0804,ADAMOLI 3/SCIORBA,0804,44.445797,8.969406
0805,ADAMOLI 5/CAVA,0805,44.449318,8.973836
0806,ADAMOLI 6/MOLASSANA,0806,44.451538,8.976908
0807,ADAMOLI 1/MOLASSANA,0807,44.451393,8.976273
0808,ADAMOLI 2/CAVA,0808,44.448864,8.972914
0809,ADAMOLI 3/PONTE GALLO,0809,44.446781,8.970243
0810,ADAMOLI 5/SPALATO,0810,44.442787,8.965590
0811,DALMAZIA 1/PONTE FERITORE,0811,44.441036,8.964481
0812,LORIA 7/MAGRETTI,0812,44.421303,8.959278
0813,DALMAZIA 3/PONTE CARREGA,0813,44.435390,8.962752
0814,DALMAZIA 4/ADRIATICO,0814,44.433060,8.961086
0815,DALMAZIA 5/PONTE BEZZECCA,0815,44.431313,8.959106
0816,ISTRIA 1/PASSERELLA,0816,44.429153,8.956505
0817,ISTRIA 3/PONTE MONTEVERDE,0817,44.427586,8.951776
0818,ISTRIA 4/MERCATO,0818,44.423885,8.948216
0819,DE STEFANIS 1/PARENZO,0819,44.421478,8.948678
0820,DE STEFANIS 2/MONTEBRUNO,0820,44.420124,8.949827
0821,DE STEFANIS 4/STADIO,0821,44.417915,8.952645
0822,SARDEGNA 4/PIAZZA GIUSTI,0822,44.406086,8.952405
0824,RESASCO/CAPOLINEA,0824,44.428703,8.953224
0825,BASSANO/SAPORITI,0825,44.423176,8.926379
0826,MONTEGRAPPA 1/MONTESANO,0826,44.408310,8.948201
0827,MONTEGRAPPA 2/BANCHERO,0827,44.409500,8.949478
0828,MONTEGRAPPA 3/ASIAGO,0828,44.410816,8.950221
0829,MONTEGRAPPA 4/MONTE CENGIO,0829,44.410355,8.948766
0830,MONTEGRAPPA 5/MAGISTERO,0830,44.411324,8.949216
0831,GIARDINO/MONTEGRAPPA,0831,44.413891,8.949217
0832,BURLANDO 1/SALITA MONTALDO,0832,44.416767,8.947019
0833,BURLANDO 2/PRIVATA BURLANDO,0833,44.418358,8.945121
0834,BURLANDO 3/OLIVERI,0834,44.422237,8.944086
0835,BURLANDO 4/SCUOLE,0835,44.424053,8.944741
0836,GINESTRE 1/CHIESA,0836,44.425194,8.944816
0837,GINESTRE 2/GIARDINI DI TOMASO,0837,44.426548,8.943957
0838,GINESTRE/CAPOLINEA,0838,44.426205,8.944218
0839,GINESTRE 1/SCALINATA,0839,44.426491,8.943716
0840,GINESTRE 2/CHIESA,0840,44.425240,8.944758
0841,BURLANDO 1/SCUOLE,0841,44.423992,8.944659
0842,BURLANDO 2/OLIVERI,0842,44.422157,8.944019
0843,BURLANDO 3/PRIVATA BURLANDO,0843,44.418255,8.945019
0844,BURLANDO 4/SALITA MONTALDO,0844,44.416576,8.947082
0845,GIARDINO/BURLANDO,0845,44.414181,8.948975
0846,MONTEGRAPPA 1/MAGISTERO,0846,44.411118,8.949055
0847,MONTEGRAPPA 2/MONTE CENGIO,0847,44.410332,8.948441
0848,MONTEGRAPPA 3/ASIAGO,0848,44.410686,8.950080
0849,MONTEGRAPPA 4/BANCHERO,0849,44.409252,8.949095
0850,MONTEGRAPPA 5/MONTESANO,0850,44.408176,8.947635
0851,BIANCHERI/CAPOLINEA,0851,44.424164,8.848595
0852,MERANO/SANT'ALBERTO,0852,44.427227,8.838996
0853,SANT'ALBERTO 2/CASE LIBERTAS,0853,44.429024,8.838138
0854,SANT'ALBERTO 3/,0854,44.431648,8.838730
0855,SANT'ALBERTO 4/MOLINASSI,0855,44.433205,8.838448
0859,ROLLINO 3/,0859,44.433292,8.841536
0860,ROLLINO 4/,0860,44.435078,8.840483
0861,ROLLINO 5/,0861,44.435936,8.839368
0862,ROLLINO 6/,0862,44.436920,8.839467
0863,ROLLINO 7/,0863,44.437859,8.839446
0864,ROLLINO 8/SUPERIORE CATALDI,0864,44.438286,8.838244
0865,ROLLINO/CAPOLINEA,0865,44.439823,8.837141
0866,ROLLINO 4/SUPERIORE CATALDI,0866,44.438446,8.838259
0867,ROLLINO 5/,0867,44.437832,8.839584
0868,ROLLINO 6/,0868,44.436684,8.839422
0869,ROLLINO 7/,0869,44.435928,8.839314
0870,ROLLINO 8/,0870,44.435177,8.840563
0871,ROLLINO 9/,0871,44.433289,8.841443
0875,SANT'ALBERTO 5/MOLINASSI,0875,44.433033,8.838378
0876,SANT'ALBERTO 6/,0876,44.431637,8.838639
0877,SANT'ALBERTO 7/CASE LIBERTAS,0877,44.428883,8.838058
0878,CASE LIBERTAS/INSURREZIONE,0878,44.428654,8.835752
0879,SANT'ALBERTO 5/,0879,44.431507,8.837730
0880,SANT'ALBERTO 6/,0880,44.432423,8.837166
0881,SANT'ALBERTO 7/,0881,44.433628,8.837045
0882,SANT'ALBERTO 8/,0882,44.433624,8.836124
0884,SANT'ALBERTO/CIMITERO SESTRI,0884,44.436195,8.834025
0885,SANT'ALBERTO 1/,0885,44.433395,8.836014
0886,SANT'ALBERTO 2/,0886,44.433483,8.837100
0887,SANT'ALBERTO 3/,0887,44.432358,8.837044
0888,SANT'ALBERTO 4/,0888,44.431873,8.837921
0889,BORZOLI 2/LEONARDI,0889,44.425934,8.856001
0890,BORZOLI 3/DA BISSONE,0890,44.427166,8.857137
0891,BORZOLI 4/AUTOSTRADA,0891,44.429379,8.858579
0892,BORZOLI 5/FRINGUELLO,0892,44.430443,8.860044
0893,BORZOLI 6/CAMPO SPORTIVO,0893,44.432423,8.863576
0894,BORZOLI 7/CIMITERO,0894,44.433422,8.866791
0895,BORZOLI 8/MONTE SLEME,0895,44.434311,8.869180
0896,BORZOLI 9/VENZANO,0896,44.436619,8.873328
0897,BORZOLI 10/CRISTO DI MARMO,0897,44.437801,8.875315
0898,BORZOLI 11/BURLO,0898,44.439133,8.878210
0899,BORZOLI 12/,0899,44.439266,8.880142
0900,BORZOLI 13/FEGINO,0900,44.439827,8.880857
0901,BORZOLI 14/INTERMEDIO,0901,44.437286,8.883584
0902,FERRI 1/FEGINO,0902,44.437279,8.887507
0903,AVEZZANA/,0903,44.418861,8.919108
0904,PALLAVICINI/CAPOLINEA,0904,44.437336,8.892456
0905,RAGAZZI DEL 99/CAPOLINEA,0905,44.399883,8.981489
0906,FERRI 5/FEGINO,0906,44.436848,8.887104
0907,BORZOLI 1/INTERMEDIO,0907,44.437607,8.883257
0908,BORZOLI 2/FEGINO,0908,44.440304,8.880131
0909,BORZOLI 3/,0909,44.439484,8.880134
0910,BORZOLI 4/BURLO,0910,44.439144,8.877835
0911,BORZOLI 5/CRISTO DI MARMO,0911,44.437809,8.875069
0912,BORZOLI 6/VENZANO,0912,44.436115,8.872568
0913,BORZOLI 7/MONTE SLEME,0913,44.434334,8.868872
0914,BORZOLI 8/CIMITERO,0914,44.433437,8.866427
0915,BORZOLI 9/CAMPO SPORTIVO,0915,44.432339,8.863235
0916,BORZOLI 10/FRINGUELLO,0916,44.430809,8.860416
0917,BORZOLI 11/AUTOSTRADA,0917,44.429340,8.858407
0918,BORZOLI 12/DA BISSONE,0918,44.427544,8.857425
0919,CHIARAVAGNA 8/DA BISSONE,0919,44.428535,8.854097
0920,CHIARAVAGNA 9/BELARDI,0920,44.426624,8.853168
0925,VENZANO/CAPOLINEA,0925,44.436260,8.872728
0927,PERRONE 2/BOSCHETTO,0927,44.433529,8.885766
0928,PERRONE 3/QUATTRO PALAZZI,0928,44.429417,8.885590
0930,PERRONE 4/LORENZI,0930,44.428516,8.883263
0931,PERRONE 5/QUATTRO PALAZZI,0931,44.429573,8.886048
0932,PERRONE 6/BOSCHETTO,0932,44.433773,8.885889
0934,LAGACCIO 1/SAN ROCCO,0934,44.417393,8.917849
0935,LAGACCIO 2/CENTURIONE,0935,44.419102,8.918775
0936,LAGACCIO 3/CASERMA,0936,44.421440,8.918430
0937,LAGACCIO 4/AVEZZANA,0937,44.420300,8.918529
0938,PALLAVICINI/,0938,44.437302,8.892377
0939,VEZZANI 2/CAMBIASO,0939,44.438053,8.896936
0940,VEZZANI 3/STUGGIA,0940,44.439049,8.899034
0941,VEZZANI 4/,0941,44.440613,8.900738
0942,VEZZANI 5/FORNACE DEL GARBO,0942,44.441113,8.902587
0943,FORNACE DEL GARBO 1/RONCASOLO,0943,44.440891,8.906230
0944,FORNACE DEL GARBO 2/PENTEMA,0944,44.440903,8.906930
0945,FORNACE DEL GARBO 3/CAREGHINO,0945,44.440666,8.908898
0946,FORNACE DEL GARBO 4/,0946,44.439465,8.909985
0947,FORNACE DEL GARBO 5/OLIVERI,0947,44.437920,8.910830
0948,CHIESA DEL GARBO/CAPOLINEA,0948,44.436607,8.907988
0949,FORNACE DEL GARBO 1/OLIVERI,0949,44.437939,8.910926
0950,FORNACE DEL GARBO 2/,0950,44.439556,8.910261
0951,FORNACE DEL GARBO 3/CAREGHINO,0951,44.440777,8.908746
0952,FORNACE DEL GARBO 4/PENTEMA,0952,44.440769,8.906988
0953,FORNACE DEL GARBO 5/RONCASOLO,0953,44.441002,8.905984
0954,VEZZANI 1/FORNACE DEL GARBO,0954,44.441120,8.902373
0955,VEZZANI 2/,0955,44.440647,8.900516
0956,VEZZANI 4/CAMBIASO,0956,44.438400,8.897531
0957,BARACCA/VIGNA,0957,44.425175,8.849527
0958,CANEPA 2/DEL CARRETTO,0958,44.428993,8.851816
0959,OLIVA 1/OSPEDALE DI SESTRI,0959,44.430790,8.852045
0960,OLIVA 2/AQUILEIA,0960,44.432964,8.851557
0961,SEDICI GIUGNO 1/TRAVERSA,0961,44.433243,8.848041
0962,CONSIGLIERE/COSTA FS,0962,44.432621,8.845245
0963,SEDICI GIUGNO 2/TRAVERSA,0963,44.433357,8.848659
0964,LANDI 2/CAPOLINEA,0964,44.416512,8.890524
0965,LANDI 3/SCALINATA,0965,44.415871,8.890900
0966,BALBI PIOVERA/PASCOLI,0966,44.411495,8.899485
0967,SCASSI/OSPEDALE,0967,44.412395,8.897260
0968,MAGELLANO 1/SAN BARBORINO,0968,44.413151,8.896511
0969,MAGELLANO 2/SCALINATA,0969,44.413567,8.895199
0970,MARTINETTI 2/VASCO DA GAMA,0970,44.415421,8.895161
0971,MARTINETTI 3/CEVASCO,0971,44.416553,8.895621
0972,MARTINETTI 4/POSTE,0972,44.418007,8.896081
0973,MARTINETTI 5/,0973,44.418762,8.896117
0974,MARTINETTI 6/,0974,44.419243,8.896692
0975,MARTINETTI 7/BIVIO BELVEDERE,0975,44.421215,8.898027
0976,BELVEDERE 1/POWELL,0976,44.420280,8.896092
0977,POWELL 1/,0977,44.421043,8.894659
0978,POWELL 2/,0978,44.421555,8.895818
0979,BELVEDERE 2/SCALINATA,0979,44.419571,8.894835
0980,BELVEDERE/CAPOLINEA,0980,44.417950,8.893431
0981,BELVEDERE 1/SCALINATA,0981,44.419594,8.894956
0982,CANTORE 3/VILLA SCASSI,0982,44.410992,8.896159
0983,BELVEDERE 2/POWELL,0983,44.420170,8.896213
0984,BELVEDERE 3/MARTINETTI,0984,44.421238,8.897733
0985,MARTINETTI 2/,0985,44.418884,8.895699
0986,MARTINETTI 3/,0986,44.418941,8.896681
0987,MARTINETTI 4/POSTE,0987,44.417984,8.895940
0988,MARTINETTI 5/CEVASCO,0988,44.416542,8.895463
0989,MARTINETTI 6/VASCO DA GAMA,0989,44.415058,8.894704
0990,MAGELLANO 1/SCALINATA,0990,44.413486,8.894805
0991,SCASSI/OSPEDALE,0991,44.412292,8.897346
0992,BALBI PIOVERA/BECCARIA,0992,44.411266,8.898215
0993,CANTORE 4/PITTALUGA,0993,44.410927,8.897048
0994,FARINI/MONTI,0994,44.413757,8.891170
0995,MONTI 1/LANDI,0995,44.415604,8.891793
0996,MONTI 2/TOSA,0996,44.414841,8.891599
0997,LANDI 1/BATTAGLINI,0997,44.416195,8.891391
0998,ARRIVABENE/,0998,44.431389,8.853459
0999,PIAZZA ARRIVABENE/,0999,44.433578,8.854255
1000,CHIARAVAGNA 2/BUXIO,1000,44.435703,8.854567
1001,CHIARAVAGNA 3/PANIGARO,1001,44.438030,8.854790
1002,CHIARAVAGNA 4/CASSINELLE,1002,44.439934,8.855165
1003,CHIARAVAGNA 5/,1003,44.441269,8.855123
1004,CHIARAVAGNA 1/,1004,44.443573,8.854616
1005,CHIARAVAGNA 2/,1005,44.441120,8.855099
1006,CHIARAVAGNA 3/CASSINELLE,1006,44.439846,8.855065
1007,CHIARAVAGNA 4/PANIGARO,1007,44.438049,8.854631
1008,CHIARAVAGNA 5/BUXIO,1008,44.435867,8.854299
1009,PIAZZA ARRIVABENE/,1009,44.433430,8.854066
1010,ARRIVABENE/,1010,44.431179,8.853298
1012,MASSENA/CORONATA,1012,44.416534,8.876028
1013,CORONATA 1/,1013,44.418118,8.875491
1014,CORONATA 2/CALASANZIO,1014,44.418991,8.875332
1015,CORONATA 3/PADRE UMILE,1015,44.421032,8.876990
1016,CORONATA 4/SAN RAFFAELE,1016,44.423401,8.876633
1017,MONTE GUANO 1/SANTUARIO,1017,44.426350,8.877063
1018,MONTE GUANO 2/SAN GIACOMO,1018,44.426910,8.873973
1019,MONTE GUANO 3/CIMITERO,1019,44.428589,8.870254
1020,MONTE GUANO 4/ZINGARELLO,1020,44.431488,8.870799
1021,MONTE GUANO 5/PURGATORIO,1021,44.432140,8.873051
1022,TESTA DI CAVALLO/CAPOLINEA,1022,44.433506,8.874902
1023,MONTE GUANO 1/PURGATORIO,1023,44.432117,8.872909
1024,MONTE GUANO 2/ZINGARELLO,1024,44.431496,8.870593
1025,MONTE GUANO 3/CIMITERO,1025,44.428371,8.870379
1026,MONTE GUANO 4/SAN GIACOMO,1026,44.426849,8.873981
1027,MONTE GUANO 5/SANTUARIO,1027,44.426266,8.877079
1028,CORONATA 1/SAN RAFFAELE,1028,44.423306,8.876439
1029,CORONATA 2/PADRE UMILE,1029,44.420803,8.876841
1030,CORONATA 3/CALASANZIO,1030,44.418854,8.875036
1031,CORONATA 4/,1031,44.417988,8.875587
1032,MASSENA/CORNIGLIANO,1032,44.416473,8.875723
1034,MASSENA/PERRONE,1034,44.416481,8.876672
1035,PERRONE 1/BIANCHI,1035,44.418499,8.878608
1036,BIANCHI 1/BAGNASCO,1036,44.420479,8.880773
1037,PERRONE 2/CAMPI,1037,44.425396,8.882753
1038,PERRONE 3/VILLA PICASSO,1038,44.427067,8.882083
1039,PERRONE 7/BORZOLI,1039,44.435600,8.886736
1040,FERRI 2/SANT'AMBROGIO,1040,44.440125,8.888344
1041,FERRI 3/QUARTINI,1041,44.442089,8.887708
1042,FERRI 4/DE CALBOLI,1042,44.444351,8.889008
1043,FERRI 5/SAN DONA',1043,44.446461,8.889460
1044,POLONIO 1/TRASTA,1044,44.452496,8.892641
1045,POLONIO 2/SALITA MURTA,1045,44.456615,8.897365
1046,N.S. GUARDIA 1/BOLZANETO FS,1046,44.458717,8.898956
1047,N.S. GUARDIA 2/PINO DI MURTA,1047,44.461391,8.897414
1048,N.S. GUARDIA 3/,1048,44.463539,8.897012
1049,N.S. GUARDIA 4/PONTE RATTO,1049,44.464439,8.897661
1050,ROMAIRONE 1/SCALA,1050,44.469627,8.901283
1051,ROMAIRONE 2/SAN BIAGIO,1051,44.474304,8.899440
1052,ROMAIRONE 3/PONTE BARBIERI,1052,44.477051,8.899490
1053,SEMINI 1/GASTALDI,1053,44.479923,8.899424
1054,SEMINI 2/SAN BIAGIO FS,1054,44.481804,8.899000
1055,SEMINI 3/ISOLA ECOLOGICA,1055,44.485859,8.898142
1056,ISOCORTE/OTTONELLI,1056,44.490269,8.900346
1057,FONDERIE GRONDONA/VALSUGANA,1057,44.492683,8.903741
1059,POLONIO 2/TRASTA,1059,44.452862,8.892743
1060,CASTEL MORRONE 2/CORVI,1060,44.449162,8.889268
1061,BASSANO/SAPORITI,1061,44.423359,8.926414
1062,SEMINI 1/FORESTALE,1062,44.488251,8.898710
1063,SEMINI 2/ISOLA ECOLOGICA,1063,44.485516,8.898012
1064,SEMINI 3/SAN BIAGIO FS,1064,44.481426,8.898939
1065,SEMINI 4/GASTALDI,1065,44.479568,8.899350
1066,ROMAIRONE 1/PONTE BARBIERI,1066,44.476536,8.899168
1067,ROMAIRONE 2/SAN BIAGIO,1067,44.473568,8.899868
1068,ROMAIRONE 3/SCALA,1068,44.469254,8.901115
1069,LEVATI 1/CENTRO COMMERCIALE,1069,44.468735,8.899352
1070,N.S. GUARDIA 1/ARTIGIANI,1070,44.468578,8.898181
1071,N.S. GUARDIA 2/PONTE RATTO,1071,44.465961,8.898107
1072,N.S. GUARDIA 3/,1072,44.463360,8.896786
1073,N.S. GUARDIA 4/PINO DI MURTA,1073,44.461327,8.897320
1074,N.S. GUARDIA 5/BOLZANETO FS,1074,44.458843,8.898854
1075,POLONIO 1/SALITA MURTA,1075,44.456432,8.896964
1076,NERVI/CAPOLINEA,1076,44.384468,9.032262
1077,CASTEL MORRONE 1/TRASTA,1077,44.451843,8.891318
1078,FERRI 1/SAN DONA',1078,44.446301,8.889344
1079,FERRI 2/DE CALBOLI,1079,44.443821,8.888465
1080,FERRI 3/QUARTINI,1080,44.441387,8.887589
1081,FERRI 4/SANT'AMBROGIO,1081,44.439587,8.888073
1082,PERRONE 1/BORZOLI,1082,44.435417,8.886490
1083,PERRONE 4/LORENZI,1083,44.428337,8.882867
1084,PERRONE 5/VILLA PICASSO,1084,44.427013,8.881877
1085,PERRONE 6/CAMPI,1085,44.424900,8.882500
1086,PERINI/CAMPI,1086,44.422596,8.883669
1087,PERRONE 6/BIANCHI,1087,44.418324,8.878405
1088,PERRONE 7/MASSENA,1088,44.416603,8.876662
1089,BRIN 1/METRO',1089,44.428570,8.894855
1090,MAGELLANO 2/SAN BARBORINO,1090,44.413036,8.896253
1093,ARTIGIANI 1/N.S. DELLA GUARDIA,1093,44.471210,8.894494
1094,ARTIGIANI 2/ALBISOLA,1094,44.469898,8.895875
1095,COSTA DI PINO/TORRAZZA,1095,44.469208,8.959000
1096,MANIN/CAPOLINEA,1096,44.414185,8.947128
1097,STAZIONE PER CASELLA/,1097,44.414410,8.948587
1098,SAN BARTOLOMEO/CABELLA,1098,44.416126,8.946774
1099,CARSO 1/CABELLA,1099,44.416740,8.945208
1100,CARSO 2/SAN BERNARDINO,1100,44.418308,8.943711
1101,CARSO 3/SAN PANTALEO,1101,44.420078,8.942904
1102,CARSO 4/CHIODO,1102,44.417549,8.942472
1103,CARSO 5/CIMA SAN PANTALEO,1103,44.423580,8.939919
1104,CARSO 6/,1104,44.426167,8.936862
1105,CARSO 7/RIGHI,1105,44.424381,8.937470
1106,COSTANZI 1/PERALTO,1106,44.426247,8.934404
1107,COSTANZI 2/PARCO DELLE MURA,1107,44.428772,8.928847
1108,COSTANZI 3/FUMAGALLI,1108,44.427921,8.927973
1109,COSTANZI 5/GIUSSO,1109,44.426960,8.926821
1110,BELVEDERE DA PASSANO/CAPOLINEA,1110,44.424568,8.924479
1111,COSTANZI 4/PARCO DELLE MURA,1111,44.428440,8.928509
1112,COSTANZI 5/PERALTO,1112,44.426140,8.934614
1113,CARSO 1/RIGHI,1113,44.424389,8.937627
1114,CARSO 2/,1114,44.426041,8.936823
1115,CARSO 3/CIMA SAN PANTALEO,1115,44.423531,8.939772
1116,CARSO 4/CHIODO,1116,44.417675,8.942794
1117,CARSO 5/SAN PANTALEO,1117,44.420021,8.942765
1118,CARSO 6/SAN BERNARDINO,1118,44.418087,8.943656
1119,CARSO 7/CABELLA,1119,44.416664,8.945085
1120,CABELLA 1/SAN BERNARDINO,1120,44.416046,8.945315
1121,CABELLA 2/CONTARDO,1121,44.415668,8.946233
1122,CABELLA 3/PASSO BISCUOLA,1122,44.414902,8.946043
1123,RIGHI/CAPOLINEA,1123,44.424225,8.937856
1124,SAN CIPRIANO/CAPOLINEA,1124,44.501419,8.914720
1125,CARLI 1/MADONNETTA,1125,44.494663,8.912586
1126,CARLI 2/,1126,44.492680,8.908840
1127,CARLI 3/,1127,44.494339,8.909598
1128,CARLI 4/,1128,44.495308,8.909450
1129,CARLI 5/,1129,44.495033,8.909209
1130,CARLI 6/,1130,44.493988,8.908303
1131,VAL D'ASTICO 1/,1131,44.495243,8.908453
1132,VAL D'ASTICO 2/FRATELLI GAZZO,1132,44.496574,8.907185
1133,VAL D'ASTICO 3/ANFOSSI,1133,44.495743,8.905795
1134,BENEDETTO CESINO 1/CAMPOMORONE,1134,44.501244,8.904083
1135,BENEDETTO CESINO 2/,1135,44.502693,8.905280
1136,BENEDETTO CESINO 3/,1136,44.503849,8.905633
1137,BENEDETTO CESINO 4/,1137,44.505497,8.906088
1138,BENEDETTO CESINO 5/,1138,44.505245,8.905055
1139,BENEDETTO CESINO 6/,1139,44.506542,8.905552
1140,BENEDETTO CESINO 8/,1140,44.503471,8.902247
1141,BENEDETTO CESINO 9/CIMITERO,1141,44.504478,8.902454
1142,CHIESA DI CESINO/CAPOLINEA,1142,44.506241,8.902430
1143,BENEDETTO CESINO 1/CIMITERO,1143,44.504379,8.902315
1144,BENEDETTO CESINO 2/,1144,44.503536,8.902173
1145,BENEDETTO CESINO 4/,1145,44.506416,8.905309
1146,BENEDETTO CESINO 5/,1146,44.505039,8.904967
1147,BENEDETTO CESINO 6/,1147,44.505550,8.906017
1148,BENEDETTO CESINO 7/,1148,44.503815,8.905465
1149,BENEDETTO CESINO 8/,1149,44.502621,8.905171
1150,BENEDETTO CESINO 9/CAMPOMORONE,1150,44.501179,8.903740
1152,PARTIGIANI CADUTI/POLI,1152,44.496849,8.903830
1153,ARIMONDI/POLI,1153,44.495674,8.904459
1154,VAL D'ASTICO 1/ANFOSSI,1154,44.495689,8.905693
1155,VAL D'ASTICO 2/FRATELLI GAZZO,1155,44.496510,8.907129
1156,VAL D'ASTICO 3/,1156,44.495144,8.908446
1157,CARLI 1/,1157,44.493828,8.908148
1158,CARLI 2/,1158,44.495098,8.909296
1159,CARLI 3/,1159,44.495178,8.909506
1160,CARLI 4/,1160,44.494217,8.909250
1161,CARLI 5/,1161,44.492496,8.908813
1162,CARLI 6/MADONNETTA,1162,44.494614,8.912677
1163,LINNEO 5/CHERUBINI,1163,44.445976,8.902246
1164,DINEGRO/TERMINAL TRAGHETTI,1164,44.412514,8.909370
1165,S.B. DEL FOSSATO 1/CANTORE,1165,44.411163,8.899987
1166,S.B. DEL FOSSATO 2/CHIESA,1166,44.414032,8.901477
1167,S.B. DEL FOSSATO 3/DANTE CONTE,1167,44.414280,8.902463
1168,S.B. DEL FOSSATO 4/CASE PORTO,1168,44.413113,8.901494
1169,S.B. DEL FOSSATO 5/,1169,44.413506,8.902971
1170,S.B. DEL FOSSATO 6/GIARDINI,1170,44.413342,8.903214
1171,S.B. DEL FOSSATO 7/RIGOLA,1171,44.413692,8.904682
1172,MURA ANGELI/BUONVICINI,1172,44.416714,8.904810
1173,PORTA ANGELI 1/BARACCHETTA,1173,44.419296,8.904078
1174,PORTA ANGELI 2/CASTAGNA,1174,44.421539,8.902477
1175,PORTA ANGELI 3/PROMONTORIO,1175,44.421741,8.899988
1176,MARTINETTI 1/BIVIO BELVEDERE,1176,44.421463,8.897863
1177,MARTINETTI 7/MONTI,1177,44.413715,8.893668
1178,MONTANO/SAMPIERDARENA FS,1178,44.412743,8.888413
1179,MARTINETTI 1/MONTI,1179,44.413704,8.893882
1180,PORTA ANGELI 1/PROMONTORIO,1180,44.421600,8.899936
1181,PORTA ANGELI 2/CASTAGNA,1181,44.421455,8.902389
1182,PORTA ANGELI 3/BARACCHETTA,1182,44.419182,8.903975
1183,MURA ANGELI/BUONVICINI,1183,44.416447,8.904676
1184,S.B. DEL FOSSATO 1/RIGOLA,1184,44.413696,8.904491
1185,S.B. DEL FOSSATO 2/GIARDINI,1185,44.412884,8.902978
1186,S.B. DEL FOSSATO 3/,1186,44.413448,8.902654
1187,S.B. DEL FOSSATO 4/CASE PORTO,1187,44.413120,8.901634
1188,S.B. DEL FOSSATO 5/DANTE CONTE,1188,44.414516,8.902792
1189,S.B. DEL FOSSATO 6/CHIESA,1189,44.414280,8.901502
1190,S.B. DEL FOSSATO 7/CANTORE,1190,44.411060,8.899799
1192,DONGHI 4/BERNO,1192,44.412971,8.972011
1193,BERGHINI 1/GALEAZZO,1193,44.413029,8.969627
1194,BERGHINI 2/,1194,44.413765,8.972370
1195,BERGHINI 3/,1195,44.414570,8.976326
1196,BERGHINI 4/BONACCHI,1196,44.414352,8.978170
1197,BERGHINI 5/,1197,44.415039,8.976837
1198,BERGHINI 6/,1198,44.415245,8.977005
1199,BERGHINI 7/SANTA TECLA,1199,44.415710,8.979511
1200,BERGHINI 9/PIANDERLINO,1200,44.416130,8.975477
1201,BERGHINI 11/GIARDINI,1201,44.416687,8.984234
1202,BERGHINI 12/,1202,44.417694,8.983550
1203,CAMALDOLI/CAPOLINEA,1203,44.419281,8.985038
1204,BERGHINI 1/,1204,44.417656,8.983476
1205,BERGHINI 2/GIARDINI,1205,44.416897,8.984187
1206,BERGHINI 4/PIANDERLINO,1206,44.416161,8.975216
1207,BERGHINI 6/SANTA TECLA,1207,44.415634,8.978914
1208,BERGHINI 7/,1208,44.415325,8.976735
1209,BERGHINI 8/,1209,44.414986,8.976823
1210,BERGHINI 9/BONACCHI,1210,44.414242,8.977692
1211,BERGHINI 10/,1211,44.414589,8.975931
1212,BERGHINI 11/,1212,44.413769,8.972144
1213,BERGHINI 12/GALEAZZO,1213,44.413067,8.969264
1214,BERGHINI 13/BERNO,1214,44.413033,8.971512
1216,MOSSO/PRONTO SOCCORSO,1216,44.408432,8.975576
1218,ACQUASANTA 2/PICCARDO,1218,44.443352,8.751739
1219,CHIESA SANT'ILARIO/CAPOLINEA,1219,44.385128,9.053563
1220,SANT'ILARIO 1/SOCIETA' OPERAIA,1220,44.385338,9.051097
1221,SANT'ILARIO 2/,1221,44.384495,9.053308
1222,SANT'ILARIO 3/RIO FONTANINO,1222,44.383694,9.056105
1223,SANT'ILARIO 4/,1223,44.383720,9.054343
1224,SANT'ILARIO 5/,1224,44.383793,9.052595
1225,SANT'ILARIO 6/SALITA NOFFI,1225,44.383778,9.049962
1226,NERVI/CAPOLINEA,1226,44.384418,9.032299
1227,BASSANITE/SALA,1227,44.383694,9.042965
1228,SANT'ILARIO 1/PASQUA,1228,44.383148,9.046057
1229,SANT'ILARIO 2/SOMMA,1229,44.383568,9.047891
1230,SANT'ILARIO 3/SALITA NOFFI,1230,44.383900,9.050366
1231,SANT'ILARIO 4/,1231,44.383732,9.052750
1232,SANT'ILARIO 5/,1232,44.383709,9.054921
1233,SANT'ILARIO 6/RIO FONTANINO,1233,44.383556,9.056093
1234,SANT'ILARIO 7/,1234,44.384594,9.053226
1235,SANT'ILARIO 8/SOCIETA' OPERAIA,1235,44.385391,9.051134
1236,CIMITERO DI NERVI/,1236,44.389587,9.036937
1237,COMMERCIO 6/,1237,44.389015,9.035657
1238,COMMERCIO 7/,1238,44.388149,9.034601
1239,COMMERCIO 8/,1239,44.387154,9.034040
1240,COMMERCIO 9/,1240,44.386326,9.033438
1241,COMMERCIO 10/BELSITO,1241,44.386353,9.031945
1242,TOSONOTTI/,1242,44.429329,8.744134
1244,COMMERCIO 1/OBERDAN,1244,44.385872,9.032529
1245,COMMERCIO 2/,1245,44.386234,9.033742
1246,COMMERCIO 3/,1246,44.387417,9.033976
1247,COMMERCIO 4/,1247,44.387970,9.034802
1248,COMMERCIO 5/,1248,44.389137,9.035956
1249,GAGGERO 1/DA BISSONE,1249,44.429157,8.854966
1250,GAGGERO 2/MUSCOLA,1250,44.430328,8.855074
1252,VIRGO POTENS/CAPOLINEA,1252,44.431087,8.856201
1253,GAGGERO/MUSCOLA,1253,44.430279,8.854999
1254,RAPISARDI/CAPOLINEA,1254,44.425320,8.820500
1255,OPISSO 2/CIALLI,1255,44.428028,8.820398
1256,VARENNA 1/PONTE COLLA,1256,44.431610,8.819787
1257,VARENNA 2/,1257,44.435009,8.818914
1258,VARENNA 3/,1258,44.436810,8.819668
1259,VARENNA 4/TRE PONTI,1259,44.439125,8.819569
1260,CARPENARA 1/GRANARA FS,1260,44.441891,8.820765
1261,CARPENARA 2/PROFONDO,1261,44.444889,8.818030
1262,CARPENARA 3/,1262,44.447891,8.818461
1263,CARPENARA 5/,1263,44.451683,8.820914
1264,CARPENARA 6/,1264,44.454861,8.820453
1265,CARPENARA 7/,1265,44.458454,8.820115
1266,CARPENARA 8/,1266,44.463547,8.823882
1267,SAN CARLO DI CESE 1/,1267,44.463814,8.827806
1268,SAN CARLO DI CESE 2/,1268,44.465416,8.828739
1269,SAN CARLO DI CESE 3/OGGIA',1269,44.467487,8.830349
1270,SAN CARLO DI CESE 4/SPOTTI,1270,44.470852,8.832404
1271,SAN CARLO DI CESE 5/FERREN,1271,44.474438,8.833094
1272,SAN CARLO DI CESE 7/,1272,44.475536,8.831359
1273,SAN CARLO DI CESE 8/CHIESA,1273,44.478100,8.833768
1274,SAN CARLO DI CESE/CAPOLINEA,1274,44.480888,8.836082
1275,SAN CARLO DI CESE 2/CHIESA,1275,44.478043,8.833606
1276,SAN CARLO DI CESE 3/,1276,44.475475,8.831237
1277,SAN CARLO DI CESE 5/FERREN,1277,44.474392,8.833035
1278,SAN CARLO DI CESE 6/SPOTTI,1278,44.470741,8.832280
1279,SAN CARLO DI CESE 7/OGGIA',1279,44.467304,8.829962
1280,SAN CARLO DI CESE 8/,1280,44.465374,8.828652
1281,SAN CARLO DI CESE 9/,1281,44.464100,8.828024
1282,CARPENARA 1/,1282,44.463566,8.823711
1283,CARPENARA 2/,1283,44.457962,8.820212
1284,CARPENARA 3/,1284,44.454773,8.820404
1285,CARPENARA 5/,1285,44.451637,8.820878
1286,CARPENARA 7/,1286,44.447971,8.818336
1287,CARPENARA 8/PROFONDO,1287,44.444832,8.817874
1288,CARPENARA 9/GRANARA FS,1288,44.442131,8.820815
1289,VARENNA 1/TRE PONTI,1289,44.439163,8.819359
1290,VARENNA 2/,1290,44.436676,8.819539
1291,VARENNA 3/,1291,44.434795,8.818615
1292,VARENNA 4/PONTE COLLA,1292,44.431194,8.819903
1293,OPISSO 1/CIALLI,1293,44.428040,8.820315
1294,CIMITERO DI RIVAROLO/,1294,44.443649,8.906287
1295,VEZZANI 3/STUGGIA,1295,44.439072,8.898873
1296,CHIESA DI MURTA/CAPOLINEA,1296,44.461475,8.889544
1297,DOGE DA MURTA 1/,1297,44.460075,8.889756
1298,DOGE DA MURTA 2/ASILO,1298,44.458317,8.890075
1299,DOGE DA MURTA 3/,1299,44.459084,8.889024
1300,MASSUCCONE MAZZINI 1/MONFENERA,1300,44.456936,8.890233
1301,MASSUCCONE MAZZINI 2/SCUOLE,1301,44.457603,8.891751
1302,MASSUCCONE MAZZINI 3/,1302,44.458096,8.893641
1303,MASSUCCONE MAZZINI 4/,1303,44.458744,8.894927
1304,MASSUCCONE MAZZINI 6/,1304,44.458118,8.896374
1305,MASSUCCONE MAZZINI 7/,1305,44.458321,8.897440
1307,BOLZANETO 3/PASTORINO,1307,44.459850,8.902118
1308,CUSTO/BOLZANETO FS,1308,44.459076,8.900468
1309,MASSUCCONE MAZZINI 1/,1309,44.458393,8.897423
1310,MASSUCCONE MAZZINI 2/,1310,44.458309,8.896157
1311,MASSUCCONE MAZZINI 4/,1311,44.458744,8.894740
1312,MASSUCCONE MAZZINI 5/,1312,44.458023,8.893318
1313,MASSUCCONE MAZZINI 6/SCUOLE,1313,44.457542,8.891452
1314,MASSUCCONE MAZZINI 7/MONFENERA,1314,44.456867,8.890015
1315,DOGE DA MURTA 1/,1315,44.459152,8.888913
1316,DOGE DA MURTA 2/ASILO,1316,44.458099,8.890195
1317,DOGE DA MURTA 3/,1317,44.460075,8.889843
1318,CHIODO/BACHERNIA,1318,44.418266,8.940694
1319,CHIODO 1/CAVALLO,1319,44.420246,8.938813
1320,CHIODO 2/PIAGGIO,1320,44.420712,8.937971
1321,PIAGGIO 1/SAN SIMONE,1321,44.421104,8.935972
1322,PIAGGIO 2/PREVE,1322,44.420162,8.933989
1323,PIAGGIO 3/,1323,44.420448,8.935372
1324,PIAGGIO 4/VILLA MARIA,1324,44.419739,8.934072
1325,PIAGGIO 5/MARCO POLO,1325,44.419147,8.933421
1328,CANCELLIERE 4/FERRARI,1328,44.417599,8.936694
1329,CANCELLIERE 5/BARSANTI,1329,44.417156,8.936467
1330,BARSANTI/PONTE CAFFARO,1330,44.416092,8.934907
1331,VILLA/SPIANATA CASTELLETTO,1331,44.414192,8.933221
1332,CASTELLETTO/SPIANATA,1332,44.413471,8.933185
1333,ACQUARONE 1/PONTE CAFFARO,1333,44.416245,8.935941
1334,ACQUARONE 2/FERRARI,1334,44.417355,8.937868
1335,ACQUARONE 3/CABRINI,1335,44.417900,8.938861
1336,CANCELLIERE 1/CAVALLO,1336,44.418713,8.937473
1337,CANCELLIERE 2/PANE,1337,44.418102,8.936968
1340,PIAGGIO 1/MARCO POLO,1340,44.419178,8.933073
1341,PIAGGIO 2/VILLA MARIA,1341,44.419746,8.934241
1342,PIAGGIO 3/,1342,44.420547,8.935608
1343,PIAGGIO 4/PREVE,1343,44.420284,8.934050
1344,PIAGGIO 5/SAN SIMONE,1344,44.421021,8.935993
1345,CHIODO 1/PIAGGIO,1345,44.420658,8.937866
1346,CHIODO 2/CAVALLO,1346,44.420147,8.939003
1347,CARTAGENOVA/CAPOLINEA,1347,44.465652,8.992176
1348,SAN FELICE 1/CADEIA,1348,44.464237,8.992770
1349,SAN FELICE 2/PERDONO,1349,44.461269,8.990126
1350,SAN FELICE 3/MANEGGIO,1350,44.461391,8.988062
1351,SAN FELICE 4/FONTANELLA,1351,44.460030,8.985192
1352,SAN FELICE 5/OLIVO,1352,44.458744,8.984867
1353,SAN FELICE 6/BRUGHE,1353,44.458839,8.982808
1354,SAN FELICE 7/COTELLA SUPERIORE,1354,44.456985,8.982616
1355,SAN FELICE 8/COTELLA INFERIORE,1355,44.456375,8.981753
1356,SAN FELICE 9/ACACIE,1356,44.457359,8.980879
1357,SAN FELICE 10/ARIZONA,1357,44.456795,8.980481
1358,GEIRATO 1/MOLASSANA,1358,44.454670,8.979649
1359,GEIRATO 2/BERNARDINI,1359,44.456577,8.978420
1360,GEIRATO 3/CODEVIOLA,1360,44.458427,8.978080
1361,GEIRATO 4/SCUOLE,1361,44.459908,8.979416
1362,GEIRATO 5/PASSERELLA,1362,44.462345,8.981414
1363,GEIRATO 6/,1363,44.463371,8.983194
1364,GEIRATO 7/CARPI,1364,44.464252,8.984669
1365,GEIRATO/CAPOLINEA,1365,44.468182,8.989231
1366,GEIRATO 2/CARPI,1366,44.463898,8.984139
1367,GEIRATO 3/,1367,44.463272,8.982781
1368,GEIRATO 4/PASSERELLA,1368,44.462189,8.981148
1369,GEIRATO 5/SCUOLE,1369,44.459789,8.979281
1370,GEIRATO 6/CODEVIOLA,1370,44.458309,8.977931
1371,GEIRATO 7/BERNARDINI,1371,44.456379,8.978478
1372,BERNARDINI/DI PINO,1372,44.454575,8.977617
1373,SAN FELICE 1/MOLASSANA,1373,44.454597,8.981258
1374,SAN FELICE 2/ARIZONA,1374,44.456509,8.980549
1375,SAN FELICE 3/ACACIE,1375,44.457176,8.980824
1376,SAN FELICE 4/COTELLA INFERIORE,1376,44.456303,8.981934
1377,SAN FELICE 5/COTELLA SUPERIORE,1377,44.457256,8.982428
1378,SAN FELICE 6/BRUGHE,1378,44.458866,8.982944
1379,SAN FELICE 7/OLIVO,1379,44.458538,8.985144
1380,SAN FELICE 8/FONTANELLA,1380,44.459877,8.985646
1381,SAN FELICE 9/MANEGGIO,1381,44.461319,8.988111
1382,SAN FELICE 10/PERDONO,1382,44.461254,8.990359
1383,SAN FELICE 11/CADEIA,1383,44.464233,8.992921
1384,DEL PIANO/TORTOSA,1384,44.414978,8.952884
1385,MARASSI/STADIO,1385,44.418030,8.949093
1386,MANDOLI/FASSICOMO,1386,44.420570,8.948179
1387,BLIGNY/CENTRO COMMERCIALE,1387,44.439579,8.964433
1388,TERPI 1/MOGADISCIO,1388,44.438786,8.966198
1389,MOGADISCIO 1/MONTESIGNANO,1389,44.436901,8.966035
1390,MOGADISCIO 2/SALITA TERPI,1390,44.435932,8.966696
1391,MOGADISCIO 3/PASSO BUGGI,1391,44.436020,8.970496
1392,MOGADISCIO 4/MULINO,1392,44.437092,8.973486
1393,MOGADISCIO 5/BAIARDO,1393,44.438023,8.975387
1394,MOGADISCIO 6/GIACALONE,1394,44.439800,8.976768
1395,MOGADISCIO 7/ROCCHE DI BAVARI,1395,44.440384,8.978251
1396,MOGADISCIO 8/SCUOLE,1396,44.441116,8.980430
1397,MOGADISCIO 9/LOCALITA' MERMI,1397,44.440220,8.981337
1398,MOGADISCIO 11/SALITA MERMI,1398,44.439926,8.982233
1399,MOGADISCIO 12/VAL D'AVETO,1399,44.441105,8.985688
1401,MOGADISCIO 2/VAL D'AVETO,1401,44.440948,8.985451
1402,MOGADISCIO 3/SALITA MERMI,1402,44.439789,8.981931
1403,MOGADISCIO 5/LOCALITA' MERMI,1403,44.440384,8.981577
1404,MOGADISCIO 6/SCUOLE,1404,44.441257,8.980520
1405,MOGADISCIO 7/ROCCHE DI BAVARI,1405,44.440529,8.978654
1406,MOGADISCIO 8/GIACALONE,1406,44.440029,8.976730
1407,MOGADISCIO 9/BAIARDO,1407,44.437988,8.975063
1408,MOGADISCIO 10/MULINO,1408,44.436939,8.972937
1409,MOGADISCIO 11/PASSO BUGGI,1409,44.436123,8.970095
1410,MOGADISCIO 12/SALITA TERPI,1410,44.436142,8.966417
1411,MOGADISCIO 13/MONTESIGNANO,1411,44.437965,8.966416
1412,TERPI/MOGADISCIO,1412,44.438984,8.966261
1413,BLIGNY/CENTRO COMMERCIALE,1413,44.439587,8.964705
1414,DALMAZIA 2/GUGLIELMETTI,1414,44.438389,8.963446
1415,PARENZO/PONTE CAMPANELLA,1415,44.422523,8.947989
1416,MANDOLI/FASSICOMO,1416,44.420689,8.947995
1417,MARASSI/STADIO,1417,44.417820,8.949100
1418,TERPI 2/FARMACIA,1418,44.439468,8.967086
1419,TERPI 3/FAMEIANO,1419,44.439587,8.967876
1420,TERPI 4/BAILO,1420,44.438484,8.967878
1421,TERPI 5/PAL PICCOLO,1421,44.437222,8.967582
1422,FURLANI/MOGADISCIO,1422,44.436272,8.969073
1423,MERLO/EDERA,1423,44.419991,8.967166
1424,PINETTI 1/PORTAZZA,1424,44.420437,8.972170
1425,PINETTI 2/GINESTRATO,1425,44.421497,8.974265
1426,DANEO 1/DONATI,1426,44.422943,8.976748
1427,DANEO 2/PEDEGOLI,1427,44.425476,8.979206
1428,FONTANAROSSA 1/PORTAZZA,1428,44.424110,8.976662
1429,FONTANAROSSA 2/COSTA DEI ZINI,1429,44.423252,8.975568
1430,FONTANAROSSA 3/SALITA CHIESA,1430,44.422638,8.973093
1431,CHIESA DI QUEZZI/CAPOLINEA,1431,44.422668,8.972284
1432,FONTANAROSSA 1/SALITA CHIESA,1432,44.422680,8.973443
1433,FONTANAROSSA 2/COSTA DEI ZINI,1433,44.423351,8.975809
1434,FONTANAROSSA 3/PORTAZZA,1434,44.424110,8.976781
1435,DANEO 1/PEDEGOLI,1435,44.424992,8.978786
1436,DANEO 2/DONATI,1436,44.422626,8.976222
1437,PINETTI 1/GINESTRATO,1437,44.421482,8.974080
1438,PINETTI 2/PORTAZZA,1438,44.420506,8.972236
1439,MERLO/CAPRIOLO,1439,44.419918,8.966931
1440,BIANCHI 1/PERINI,1440,44.421337,8.882008
1441,BRIGNOLE FS/CAPOLINEA,1441,44.406353,8.946497
1442,MARTINEZ/PENDOLA,1442,44.406776,8.957527
1443,D'ALBERTIS 2/BOZZANO,1443,44.410671,8.958417
1444,MARCHINI 1/SOLARI,1444,44.412834,8.958205
1445,AMARENA 1/VICO DELL'ORSO,1445,44.413517,8.957904
1446,AMARENA 3/,1446,44.413799,8.958352
1447,AMARENA/CAPOLINEA,1447,44.413589,8.960386
1448,AMARENA 2/,1448,44.413635,8.958590
1449,AMARENA 3/VICO DELL'ORSO,1449,44.413570,8.957953
1450,SOLARI/CAPOLINEA,1450,44.412487,8.958610
1451,D'ALBERTIS/BOZZANO,1451,44.409992,8.958123
1452,CADIGHIARA 1/CASCINE,1452,44.411831,8.990253
1453,CADIGHIARA 2/TRE PINI,1453,44.413837,8.992624
1454,NASCHE 1/RIMESSA,1454,44.415230,8.995741
1455,NASCHE 2/BINELLE,1455,44.417015,8.998666
1456,NASCHE 3/COSTA,1456,44.417145,9.001069
1457,SAN GIORGIO 1/BARILLARO,1457,44.419918,9.002194
1458,SAN GIORGIO 2/FOSSATO,1458,44.423653,9.002000
1459,SAN GIORGIO 3/NUELO,1459,44.421219,9.005207
1460,SAN GIORGIO 4/,1460,44.426331,9.008979
1461,SAN GIORGIO 5/SELLA,1461,44.427105,9.010824
1462,SAN GIORGIO 6/PIANATA,1462,44.427715,9.013395
1463,SAN GIORGIO 7/OROBONI,1463,44.428406,9.015355
1464,SAN GIORGIO 8/MADONNETTA,1464,44.429455,9.016937
1465,SAN GIORGIO 9/SOTTOROCCA,1465,44.431366,9.018799
1466,SAN GIORGIO 10/CADEROSSI,1466,44.432606,9.020365
1467,BAVARI/FINE CORSA,1467,44.433136,9.019162
1468,BAVARI/CHIESA,1468,44.432949,9.018813
1469,SAN GIORGIO 1/CADEROSSI,1469,44.432735,9.020391
1470,SAN GIORGIO 2/SOTTOROCCA,1470,44.431175,9.018517
1471,SAN GIORGIO 3/MADONNETTA,1471,44.429550,9.016882
1472,SAN GIORGIO 4/OROBONI,1472,44.428341,9.015176
1473,SAN GIORGIO 5/PIANATA,1473,44.427879,9.013179
1474,SAN GIORGIO 6/SELLA,1474,44.426941,9.010322
1475,SAN GIORGIO 7/,1475,44.426380,9.008794
1476,SAN GIORGIO 8/NUELO,1476,44.421425,9.004985
1477,SAN GIORGIO 9/FOSSATO,1477,44.423878,9.001933
1478,SAN GIORGIO 10/BARILLARO,1478,44.419876,9.001935
1479,NASCHE 3/COSTA,1479,44.417240,9.000709
1480,NASCHE 4/BINELLE,1480,44.416939,8.998395
1481,NASCHE 5/RIMESSA,1481,44.415379,8.995251
1482,CADIGHIARA 2/TRE PINI,1482,44.413925,8.992628
1483,CADIGHIARA 3/CASCINE,1483,44.412018,8.990269
1484,ROTONDA/TANINI,1484,44.408695,8.988241
1485,SULFUREE 2/AUTOSTRADA,1485,44.428345,8.769578
1486,SAN DESIDERIO/CAPOLINEA,1486,44.422138,9.009734
1487,BISAGNO/TERRE ROSSE,1487,44.420513,9.006942
1488,NASCHE 1/CHIESA,1488,44.419952,9.003927
1489,NASCHE 2/,1489,44.419216,9.001540
1490,PROVVIDENZA/AVEZZANA,1490,44.417892,8.921063
1492,NASCHE 4/,1492,44.419205,9.001642
1493,NASCHE 5/CHIESA,1493,44.419899,9.004072
1494,BISAGNO/TERRE ROSSE,1494,44.420731,9.007145
1495,SAN DESIDERIO/FINE CORSA,1495,44.422050,9.010042
1496,APPARIZIONE/CIMITERO,1496,44.404755,9.001124
1497,PITTO/MONTE FASCE,1497,44.405636,8.999271
1498,OLIVIERI 1/ORATORIO,1498,44.405094,8.997010
1499,OLIVIERI 2/CROCE ROSSA,1499,44.404709,8.995637
1500,OLIVIERI 3/BOCCIARDO,1500,44.403519,8.992714
1501,MONACO SIMONE 1/BASTIA,1501,44.403473,8.995141
1502,MONACO SIMONE 2/PENEGO,1502,44.402733,8.993471
1503,TANINI 1/FONTANA,1503,44.401199,8.991127
1504,TANINI 2/PONTEVECCHIO,1504,44.402466,8.989396
1505,TANINI 3/BOCCIARDO,1505,44.403618,8.989588
1506,TANINI 4/PICA,1506,44.405972,8.989177
1507,TANINI 5/CIANCIULLO,1507,44.407516,8.989390
1508,TANINI 6/POSALUNGA,1508,44.408569,8.988461
1509,TANINI 1/POSALUNGA,1509,44.408470,8.988575
1510,TANINI 2/CIANCIULLO,1510,44.407360,8.989178
1511,TANINI 3/PICA,1511,44.405472,8.989032
1512,TANINI 4/BOCCIARDO,1512,44.403664,8.989463
1513,TANINI 5/PONTEVECCHIO,1513,44.402309,8.989360
1514,TANINI 6/FONTANA,1514,44.401100,8.991324
1515,MONACO SIMONE 1/PENEGO,1515,44.402554,8.993471
1516,MONACO SIMONE 3/BASTIA,1516,44.403793,8.995222
1517,OLIVIERI 1/BOCCIARDO,1517,44.403576,8.992924
1518,OLIVIERI 2/CROCE ROSSA,1518,44.404606,8.995704
1519,OLIVIERI 3/ORATORIO,1519,44.405083,8.997133
1520,PITTO/MONTE FASCE,1520,44.405560,8.999234
1521,GIOVANNI XXIII/CAPOLINEA,1521,44.415062,8.971240
1522,GIOVANNI XXIII 1/,1522,44.414673,8.970803
1523,GIOVANNI XXIII 2/,1523,44.414322,8.971033
1524,GIOVANNI XXIII 3/,1524,44.413750,8.969459
1525,GIOVANNI XXIII 4/,1525,44.413406,8.969562
1526,GIOVANNI XXIII 1/,1526,44.413479,8.969518
1527,GIOVANNI XXIII 2/,1527,44.413631,8.969649
1528,GIOVANNI XXIII 3/,1528,44.414261,8.971209
1529,GIOVANNI XXIII 4/,1529,44.414703,8.970710
1530,TIGULLIO/CAMPANULE,1530,44.394405,9.005683
1531,SAFFI 1/ORTIZ,1531,44.401855,8.931502
1532,MERCATI GENERALI/,1532,44.474049,8.908963
1534,PRINCIPE FS/CAPOLINEA,1534,44.416714,8.922071
1535,MENOTTI 1/SOLIMAN,1535,44.425339,8.845005
1537,BALBI 2/PALAZZO REALE,1537,44.415768,8.924785
1538,CARNIA 1/CELESIA,1538,44.440681,8.891892
1539,CARNIA 2/TOFANE,1539,44.441994,8.893000
1540,TOFANE 1/AUTOSTRADA,1540,44.442245,8.894730
1541,TOFANE 2/,1541,44.442673,8.896221
1542,TOFANE 3/,1542,44.443180,8.896307
1543,PALLAVICINI/CAPOLINEA,1543,44.437435,8.892247
1544,PIACENZA 11/RESASCO,1544,44.428650,8.953333
1545,PIACENZA 2/RESASCO,1545,44.428715,8.953883
1546,OBERDAN 3/PONTE DI NERVI,1546,44.385029,9.033062
1547,BARACCA/SESTRI,1547,44.425037,8.849351
1549,BIANCHI 2/BAGNASCO,1549,44.420517,8.880571
1551,SOMMA 2/NOFFI,1551,44.383270,9.050414
1552,OSPEDALE SAN MARTINO/PASTORE,1552,44.406647,8.969110
1553,TURCHINO 1/MONTANELLA,1553,44.432171,8.769813
1554,STALLO 3/TAVELLA,1554,44.422043,8.929376
1557,RIMESSA/CORNIGLIANO,1557,44.415577,8.873775
1558,CICLAMINI 8/ANEMONI,1558,44.402412,9.005759
1559,ANEMONI/COSTA D'ORECCHIA,1559,44.400890,9.005083
1560,CICLAMINI 9/ANEMONI,1560,44.402283,9.005181
1563,DE MARI/,1563,44.429131,8.770668
1564,SANREMO/BORDIGHERA,1564,44.429459,8.772541
1565,DIANO MARINA 3/MURTOLA,1565,44.430977,8.774166
1566,DIANO MARINA 2/,1566,44.430836,8.773334
1567,DIANO MARINA 1/MURTOLA,1567,44.431053,8.774010
1568,MURTOLA/SANREMO,1568,44.429039,8.773494
1570,FERREIRA/OSSERVATORIO,1570,44.418438,8.922452
1571,MASSUCCONE MAZZINI 3/,1571,44.458763,8.896036
1572,MASSUCCONE MAZZINI 5/,1572,44.458725,8.896160
1573,ARMELLINI 1/ISTITUTO CHIOSSONE,1573,44.413292,8.944045
1574,DOGALI 2/KASSALA,1574,44.417458,8.926966
1575,ASILO GARBARINO 2/,1575,44.415859,8.912962
1576,ASILO GARBARINO 4/,1576,44.415958,8.913230
1577,CANEPA 1/MALMISTRA,1577,44.427578,8.851075
1578,CANEPA 2/MALMISTRA,1578,44.427574,8.850947
1580,DANTE 1/DE FERRARI,1580,44.406425,8.934536
1581,VESPUCCI/CAPOLINEA,1581,44.430183,8.812104
1582,VESPUCCI 1/CIVITALI,1582,44.429737,8.813437
1583,VESPUCCI 2/,1583,44.429352,8.812031
1584,VESPUCCI 3/PRESTINARI,1584,44.428413,8.813701
1586,MARTIRI LIBERTA'/DE NICOLAY,1586,44.426777,8.814357
1587,PEGLI FS/MUSEI PALLAVICINI,1587,44.425869,8.817013
1588,PAVIA/BONAVINO,1588,44.427128,8.816274
1589,RICASOLI/MUSEO NAVALE,1589,44.427902,8.814721
1590,ROVETTA 2/TARIGO,1590,44.428234,8.812210
1591,PRESTINARI/RICASOLI,1591,44.428558,8.813563
1592,VESPUCCI 1/,1592,44.429291,8.812388
1593,VESPUCCI 2/CIVITALI,1593,44.429680,8.813552
1595,TAGGIA/PRA',1595,44.427734,8.778513
1596,BRANEGA 1/AUTOSTRADA,1596,44.429684,8.777998
1597,BRANEGA 2/CAMPO SPORTIVO,1597,44.431278,8.777959
1598,STASSANO 1/,1598,44.432201,8.778824
1599,STASSANO 2/,1599,44.432201,8.779406
1600,STASSANO/CAPOLINEA,1600,44.432575,8.779659
1601,STASSANO 1/,1601,44.432125,8.779340
1602,STASSANO 2/,1602,44.432236,8.778932
1603,BRANEGA 1/CAMPO SPORTIVO,1603,44.431206,8.777843
1604,BRANEGA 2/AUTOSTRADA,1604,44.429554,8.777928
1605,TAGGIA/PRA',1605,44.427704,8.778427
1606,RUBENS/CERUSA,1606,44.427250,8.741921
1607,VILLA GAVOTTI 1/GIARDINI,1607,44.428787,8.834299
1608,VILLA GAVOTTI 2/PISCINA,1608,44.430820,8.832117
1609,VILLA GAVOTTI/CAPOLINEA,1609,44.432671,8.831639
1610,VILLA GAVOTTI 1/PISCINA,1610,44.430965,8.831787
1611,VILLA GAVOTTI 2/GIARDINI,1611,44.428627,8.833689
1612,MONNET/STADIO,1612,44.415367,8.951503
1613,LODI 3/,1613,44.441822,8.960788
1614,PARKS/VERITA',1614,44.428436,8.755336
1615,ROMANA DI VOLTRI 1/NERVALLO,1615,44.426865,8.741143
1616,ROMANA DI VOLTRI 2/,1616,44.425869,8.739431
1617,ROMANA DI VOLTRI 3/SORIA,1617,44.424934,8.737526
1618,ROMANA DI VOLTRI 4/,1618,44.423607,8.736417
1619,ROMANA DI VOLTRI 5/CANEPA,1619,44.422878,8.733948
1620,NUOVA DI CREVARI 1/,1620,44.423134,8.731619
1621,NUOVA DI CREVARI 2/,1621,44.422260,8.729282
1622,NUOVA DI CREVARI 3/GAINOTTI,1622,44.420628,8.725731
1623,NUOVA DI CREVARI 4/,1623,44.423775,8.729524
1624,NUOVA DI CREVARI 5/FONTANA,1624,44.424065,8.729298
1626,CREVARI/CAPOLINEA,1626,44.424862,8.730898
1627,NUOVA DI CREVARI 1/FONTANA,1627,44.424068,8.729174
1628,NUOVA DI CREVARI 2/,1628,44.423775,8.729364
1629,NUOVA DI CREVARI 3/GAINOTTI,1629,44.420506,8.725425
1630,NUOVA DI CREVARI 4/,1630,44.422119,8.729084
1631,NUOVA DI CREVARI 5/,1631,44.423073,8.732066
1632,ROMANA DI VOLTRI 1/CANEPA,1632,44.422813,8.733963
1633,ROMANA DI VOLTRI 2/,1633,44.423687,8.736626
1634,ROMANA DI VOLTRI 3/SORIA,1634,44.424892,8.737639
1635,ROMANA DI VOLTRI 4/,1635,44.426003,8.739687
1636,ROMANA DI VOLTRI 5/NERVALLO,1636,44.426975,8.741393
1637,FABBRICHE 1/,1637,44.429245,8.742609
1638,FABBRICHE 2/,1638,44.432053,8.740241
1639,FABBRICHE 3/BRIGNA,1639,44.432877,8.738377
1640,FABBRICHE 4/ACQUEDOTTO,1640,44.434132,8.736583
1641,FABBRICHE 5/,1641,44.437519,8.736663
1642,FABBRICHE 6/CHIALE,1642,44.438690,8.732300
1643,FABBRICHE 7/CHIESA DI CHIALE,1643,44.440617,8.730834
1644,FABBRICHE 8/AUTOSTRADA,1644,44.442230,8.729885
1645,FABBRICHE 9/,1645,44.444187,8.729083
1646,FABBRICHE 10/,1646,44.445950,8.727882
1647,FABBRICHE 11/,1647,44.446609,8.725584
1648,FABBRICHE 12/,1648,44.447186,8.722040
1649,FABBRICHE 13/,1649,44.447712,8.720282
1650,FABBRICHE 14/SCUOLE,1650,44.447495,8.718640
1651,FABBRICHE 15/CHIESA,1651,44.447186,8.717884
1652,FIORINO 1/COSTA DEL VENTO,1652,44.448376,8.716205
1653,FIORINO 2/SAMBUCO,1653,44.449211,8.713538
1654,FIORINO 3/,1654,44.452629,8.711937
1655,FIORINO 4/TIRO A VOLO,1655,44.457039,8.712247
1656,FIORINO 5/,1656,44.459175,8.708772
1658,FIORINO/CAPOLINEA,1658,44.461552,8.706793
1659,FIORINO 1/,1659,44.459019,8.708546
1660,FIORINO 2/TIRO A VOLO,1660,44.456886,8.712308
1661,FIORINO 3/,1661,44.452488,8.712160
1662,FIORINO 4/SAMBUCO,1662,44.449116,8.713517
1663,FIORINO 5/COSTA DEL VENTO,1663,44.448326,8.716329
1664,FABBRICHE 1/CHIESA,1664,44.446903,8.717765
1665,FABBRICHE 2/SCUOLE,1665,44.447510,8.718784
1666,FABBRICHE 3/,1666,44.447636,8.720800
1667,FABBRICHE 4/,1667,44.447041,8.722018
1668,FABBRICHE 5/,1668,44.446640,8.725897
1669,FABBRICHE 6/,1669,44.445744,8.727626
1670,FABBRICHE 7/,1670,44.444054,8.729056
1671,FABBRICHE 8/AUTOSTRADA,1671,44.442154,8.729829
1672,FABBRICHE 9/CHIESA DI CHIALE,1672,44.440334,8.730878
1673,FABBRICHE 10/CHIALE,1673,44.438610,8.732621
1674,FABBRICHE 11/,1674,44.437336,8.736645
1675,FABBRICHE 12/ACQUEDOTTO,1675,44.434250,8.736505
1676,FABBRICHE 13/BRIGNA,1676,44.432808,8.738451
1677,FABBRICHE 14/,1677,44.431984,8.740202
1678,FABBRICHE 15/,1678,44.429222,8.742503
1679,FABBRICHE/CAPOLINEA,1679,44.447731,8.720380
1681,LEMERLE 2/AUTOSTRADA,1681,44.432106,8.749946
1682,OVADA 1/LIBIA,1682,44.433434,8.747825
1683,OVADA 2/CIMITERO DI VOLTRI,1683,44.436394,8.746197
1684,OVADA 3/CROVI,1684,44.439117,8.746111
1685,ACQUASANTA 1/OVADA,1685,44.442299,8.747884
1686,ACQUASANTA 3/,1686,44.444290,8.752400
1687,ACQUASANTA 4/,1687,44.446842,8.751637
1688,ACQUASANTA 5/CECCA,1688,44.448860,8.749937
1689,ACQUASANTA 6/,1689,44.450760,8.751033
1690,ACQUASANTA 7/,1690,44.451752,8.753128
1691,ACQUASANTA 8/,1691,44.452209,8.755474
1692,ACQUASANTA 9/,1692,44.453175,8.761062
1693,ACQUASANTA 10/,1693,44.455521,8.764930
1694,ACQUASANTA 11/CORZETTI,1694,44.456741,8.767660
1695,ACQUASANTA 12/BAIARDA,1695,44.458096,8.768830
1696,ACQUASANTA/SANTUARIO,1696,44.458271,8.769648
1697,ACQUASANTA 1/BAIARDA,1697,44.458069,8.768720
1698,ACQUASANTA 2/CORZETTI,1698,44.456715,8.767477
1699,ACQUASANTA 3/,1699,44.455456,8.764763
1700,ACQUASANTA 4/,1700,44.453259,8.760900
1701,ACQUASANTA 5/,1701,44.452362,8.755418
1702,ACQUASANTA 6/,1702,44.451675,8.752830
1703,ACQUASANTA 7/,1703,44.450783,8.750952
1704,ACQUASANTA 8/CECCA,1704,44.448761,8.749866
1705,ACQUASANTA 9/,1705,44.446922,8.751491
1706,ACQUASANTA 10/,1706,44.444157,8.752352
1707,ACQUASANTA 12/OVADA,1707,44.442329,8.747616
1708,OVADA 1/CROVI,1708,44.438778,8.746017
1709,OVADA 2/CIMITERO DI VOLTRI,1709,44.435764,8.746012
1710,OVADA 3/LIBIA,1710,44.433289,8.747861
1711,LEMERLE/AUTOSTRADA,1711,44.431889,8.750138
1712,BUFFA 1/POERIO,1712,44.429413,8.755576
1714,BUFFA 1/VENTIMIGLIA,1714,44.429287,8.758184
1715,BUFFA 2/LAIGUEGLIA,1715,44.429508,8.755233
1716,BENEDETTO CESINO 7/,1716,44.504539,8.903865
1717,BENEDETTO CESINO 3/,1717,44.504536,8.903983
1719,PADIGLIONI 6-7/,1719,44.409252,8.971382
1720,SAVIO/CORNIGLIANO FS,1720,44.415073,8.865302
1722,PINETTI/GINESTRATO,1722,44.420532,8.972301
1723,ROLLINO 10/,1723,44.443867,8.841185
1724,ROLLINO 2/,1724,44.443932,8.841171
1725,SESSANTA/CAPOLINEA,1725,44.420288,8.868576
1726,SESSANTA 1/,1726,44.419415,8.868039
1727,SESSANTA 2/ELSA,1727,44.417744,8.866264
1728,MALASPINA 1/SALITA SESSANTA,1728,44.416405,8.864470
1729,MALASPINA 2/TONALE,1729,44.416908,8.867106
1730,TONALE/DUFOUR,1730,44.417183,8.868749
1731,PELLIZZARI/CORNIGLIANO,1731,44.416111,8.871108
1734,ROLLA/CAPOLINEA,1734,44.418728,8.880161
1737,DUFOUR/CORNIGLIANO,1737,44.415783,8.869082
1738,TONALE/DUFOUR,1738,44.417278,8.869002
1739,MALASPINA/,1739,44.416851,8.865876
1740,SESSANTA 1/MALASPINA,1740,44.416664,8.864506
1741,SESSANTA 2/ELSA,1741,44.417999,8.866645
1742,SESSANTA 3/,1742,44.419464,8.868166
1743,FANTI 1/SCASSI,1743,44.412533,8.898543
1744,FANTI 2/CARREA,1744,44.413151,8.898716
1745,FANTI 3/,1745,44.413445,8.899912
1746,FANTI 4/CONTE DANTE,1746,44.415188,8.900914
1747,CARREA 1/FANTI,1747,44.415081,8.899805
1748,CARREA 2/,1748,44.415348,8.899173
1749,CARREA 3/DERCHI,1749,44.414070,8.898865
1750,FANTI 5/SCASSI,1750,44.412434,8.898432
1751,SAN TOMMASO/RIGON,1751,44.427444,8.842652
1752,TARELLO/BRISCATA,1752,44.428905,8.842662
1753,SERY 1/NEGROPONTE,1753,44.429531,8.843426
1754,SERY 2/CATALDI,1754,44.429726,8.844510
1755,SANTA MARIA COSTA 1/AUTOSTRADA,1755,44.430916,8.845398
1756,SANTA MARIA COSTA 2/BONFADIO,1756,44.431374,8.845348
1757,SANTA MARIA COSTA 2/BONFADIO,1757,44.431499,8.844522
1758,SANTA MARIA COSTA 3/AUTOSTRADA,1758,44.430714,8.845262
1759,S.G. BATTISTA 3/CATALDI,1759,44.429829,8.844442
1760,SERY 1/NEGROPONTE,1760,44.429493,8.843172
1761,SERY 2/TARELLO,1761,44.428963,8.841934
1762,SAN TOMMASO 1/DE NOTARIS,1762,44.427792,8.842822
1763,SAN TOMMASO 2/VADO,1763,44.427338,8.841737
1764,DI VITTORIO/CAPOLINEA,1764,44.431179,8.848337
1765,TOSCANELLI/RIO MALTEMPO,1765,44.432167,8.847407
1766,S.G. BATTISTA 1/SCUOLA,1766,44.429531,8.845038
1767,S.G. BATTISTA 2/GIORDANO,1767,44.428402,8.846648
1768,COSTA 1/CORRADI,1768,44.426201,8.847716
1769,COSTA 2/ORIANI,1769,44.425835,8.849242
1771,DA PERSICO/CORRADI,1771,44.426643,8.847926
1772,S.G. BATTISTA 1/GIORDANO,1772,44.428310,8.846730
1773,S.G. BATTISTA 2/SCUOLA,1773,44.429554,8.845200
1774,TOSCANELLI/RIO MALTEMPO,1774,44.432190,8.847757
1776,CORDANIERI 1/DE CRISTOFORIS,1776,44.427544,8.787339
1777,CORDANIERI 2/TORRAZZA,1777,44.429363,8.789316
1778,CORDANIERI 3/FINALE,1778,44.430504,8.790915
1779,FINALE/,1779,44.431648,8.791340
1780,QUASIMODO 1/FINALE,1780,44.429913,8.792218
1781,QUASIMODO 2/,1781,44.432003,8.792702
1782,PAVESE 1/,1782,44.431648,8.793368
1783,PAVESE 2/,1783,44.429821,8.793258
1784,VITTORINI 1/,1784,44.429882,8.794176
1785,VITTORINI 2/,1785,44.431728,8.794281
1786,QUASIMODO 3/,1786,44.431717,8.792650
1787,QUASIMODO 4/FINALE,1787,44.429840,8.792135
1788,UNGARETTI 6/,1788,44.427109,8.796749
1789,UNGARETTI 8/PRA',1789,44.425060,8.798975
1790,PEGLI FS/MUSEI PALLAVICINI,1790,44.425758,8.817043
1791,ROVETTA 1/MARTIRI DELLA LIBERTA',1791,44.427105,8.812417
1792,RIZZO 1/REXELLO,1792,44.427841,8.810724
1793,RIZZO 2/SALGARI,1793,44.428711,8.809089
1794,RIZZO 3/GIARDINO FIORITO,1794,44.429138,8.808904
1795,GLICINI/,1795,44.429726,8.807783
1796,SALGARI 2/,1796,44.429855,8.806821
1797,SALGARI 3/,1797,44.429798,8.806162
1798,SALGARI 4/,1798,44.429848,8.805158
1799,SALGARI 5/UNGARETTI,1799,44.430927,8.805144
1800,SALGARI 6/LORENZINI,1800,44.433998,8.806356
1801,SALGARI 7/,1801,44.434315,8.807539
1802,SALGARI 8/LORENZINI,1802,44.433960,8.806129
1803,SALGARI 9/,1803,44.434605,8.805098
1804,SALGARI 10/,1804,44.435600,8.809681
1805,SALGARI 11/,1805,44.434971,8.810132
1806,SALGARI 12/,1806,44.435806,8.809686
1807,SALGARI 13/,1807,44.434788,8.804996
1808,SALGARI 14/UNGARETTI,1808,44.430923,8.805053
1809,SALGARI 15/,1809,44.429634,8.805369
1810,SALGARI 16/,1810,44.429974,8.806149
1811,SALGARI 17/,1811,44.429535,8.807121
1812,RIZZO 1/SALGARI,1812,44.428596,8.808540
1813,RIZZO 2/REXELLO,1813,44.427631,8.811073
1814,CALDESI/OSPEDALE,1814,44.424973,8.804743
1815,LAVIOSA 1/,1815,44.426704,8.803549
1816,LAVIOSA 2/,1816,44.427658,8.802506
1817,LAVIOSA 3/UNGARETTI,1817,44.428368,8.801529
1818,UNGARETTI 1/,1818,44.426716,8.800943
1819,UNGARETTI 2/SCARPANTO,1819,44.427689,8.799166
1820,UNGARETTI 3/,1820,44.428627,8.797881
1821,UNGARETTI 5/SABA,1821,44.429016,8.795383
1822,AQUILEIA/OLIVA,1822,44.432808,8.851493
1824,CAMOZZINI/CERUSA,1824,44.427330,8.743076
1825,TOSONOTTI/,1825,44.429382,8.744047
1827,TURCHINO 2/PODESTA',1827,44.431931,8.767497
1828,TURCHINO 3/CROCE AZZURRA,1828,44.431705,8.765558
1829,OLIVA/OSPEDALE DI SESTRI,1829,44.430641,8.851907
1830,TURCHINO 5/SALVEMINI,1830,44.433617,8.762939
1831,SALVEMINI 1/,1831,44.432953,8.765178
1832,SALVEMINI 2/,1832,44.433022,8.766768
1833,SALVEMINI 3/DE SANCTIS,1833,44.432865,8.768341
1834,DE SANCTIS 1/FUNICOLARE,1834,44.433949,8.770767
1835,DORIA/METRO' PRINCIPE,1835,44.416279,8.919990
1836,DUE DICEMBRE 1/ADAGLIO,1836,44.437813,8.770759
1837,DUE DICEMBRE 2/,1837,44.436836,8.767868
1838,DUE DICEMBRE 3/FARMACIA,1838,44.436359,8.766340
1839,TURCHINO 9/,1839,44.434612,8.766925
1840,TURCHINO 10/SCUOLE,1840,44.434746,8.763796
1841,TURCHINO 11/VIADOTTO,1841,44.433788,8.762119
1842,TURCHINO 12/SALVEMINI,1842,44.433525,8.762733
1843,TURCHINO 13/CRAVASCO,1843,44.432938,8.763988
1844,TURCHINO 14/CROCE AZZURRA,1844,44.431656,8.766111
1845,TURCHINO 15/PODESTA',1845,44.431770,8.768030
1848,VENTIMIGLIA 1/BUFFA,1848,44.429466,8.759122
1849,VENTIMIGLIA 2/CHIESA,1849,44.429665,8.761539
1850,CRAVASCO 1/CHIESA,1850,44.430782,8.764502
1851,CRAVASCO 2/,1851,44.430904,8.766316
1852,MONTANELLA 1/CAPOLINEA,1852,44.433044,8.770119
1853,SULFUREE/CRAVASCO,1853,44.431057,8.768692
1854,CRAVASCO 1/,1854,44.431023,8.766230
1855,CRAVASCO 2/CHIESA,1855,44.430782,8.763577
1856,VENTIMIGLIA 1/CHIESA,1856,44.429668,8.760861
1857,VENTIMIGLIA 2/BUFFA,1857,44.429531,8.758732
1858,TURCHINO 4/CRAVASCO,1858,44.433071,8.762889
1859,TURCHINO 6/VIADOTTO,1859,44.433842,8.762396
1860,TURCHINO 7/SCUOLE,1860,44.434669,8.764552
1861,TURCHINO 8/,1861,44.434647,8.765806
1862,DUE DICEMBRE 1/FARMACIA,1862,44.436462,8.766285
1863,DUE DICEMBRE 2/,1863,44.437191,8.768620
1864,DUE DICEMBRE 3/ADAGLIO,1864,44.437485,8.770792
1865,DE SANCTIS 2/NOVELLA,1865,44.433838,8.773307
1866,DE SANCTIS 3/FUNICOLARE,1866,44.434063,8.770277
1867,SALVEMINI 4/DE SANCTIS,1867,44.432953,8.768386
1868,SALVEMINI 5/,1868,44.432968,8.766656
1869,SALVEMINI 6/,1869,44.433083,8.765201
1870,PIETRA LIGURE 1/CRAVASCO,1870,44.430824,8.761611
1871,PIETRA LIGURE 2/BARBAROSSA,1871,44.430916,8.757485
1872,VALLECROSIA/,1872,44.431198,8.757505
1873,CALAMANDREI 1/VALLECROSIA,1873,44.431709,8.758387
1874,CALAMANDREI 2/SCUOLE,1874,44.431622,8.757050
1875,CALAMANDREI 3/,1875,44.432983,8.756916
1876,CALAMANDREI 4/PASTORE,1876,44.435841,8.756665
1877,CALAMANDREI 5/,1877,44.435005,8.758648
1878,BENEDICTA 1/,1878,44.435955,8.761830
1879,BENEDICTA 2/POSTE,1879,44.435974,8.765679
1880,VALLECROSIA/,1880,44.431194,8.757084
1881,CAMOZZINI 1/CERUSA,1881,44.427376,8.743379
1882,CANEPA 1/DEL CARRETTO,1882,44.428539,8.851528
1883,ACQUASANTA 11/PICCARDO,1883,44.443336,8.751576
1884,BENEDICTA 1/POSTE,1884,44.436081,8.765496
1885,BENEDICTA 2/,1885,44.435524,8.761509
1886,CALAMANDREI 1/,1886,44.435051,8.758787
1887,CALAMANDREI 2/PASTORE,1887,44.435562,8.756770
1888,CALAMANDREI 3/,1888,44.433453,8.757022
1889,CALAMANDREI 4/SCUOLE,1889,44.431557,8.757677
1890,CALAMANDREI 5/VALLECROSIA,1890,44.431572,8.759062
1891,PIETRA LIGURE 1/BARBAROSSA,1891,44.430798,8.757691
1892,PIETRA LIGURE 2/CHIVASSO,1892,44.430439,8.759221
1893,PIETRA LIGURE 3/CRAVASCO,1893,44.430843,8.762254
1894,VEZZANI 1/AUTOSTRADA,1894,44.437122,8.894591
1895,WAGNER/CIMITERO DI RIVAROLO,1895,44.442825,8.904472
1896,LINNEO 1/RESPIGHI,1896,44.443203,8.900915
1897,LINNEO 2/ALBINONI,1897,44.444557,8.901731
1898,LINNEO 3/CHERUBINI,1898,44.446251,8.902802
1899,LINNEO 4/SCUOLE,1899,44.447704,8.904102
1900,LINNEO 5/BIZET,1900,44.447914,8.907120
1901,LINNEO 6/FERMI,1901,44.448032,8.908384
1902,LINNEO 7/S.G. BATTISTA,1902,44.449558,8.906831
1903,MARITANO 1/VIGLIERO,1903,44.451408,8.909098
1904,MARITANO 2/BROCCHI,1904,44.453480,8.908036
1905,MARITANO 4/CECHOV,1905,44.452969,8.905663
1906,MARITANO 5/,1906,44.451622,8.905704
1907,MARITANO 6/CAMPO SPORTIVO,1907,44.452156,8.902733
1908,MARITANO 7/ORTIGARA,1908,44.452465,8.899073
1909,MARITANO 8/AUTOSTRADA,1909,44.453125,8.897088
1910,CHIESA DI QUEZZI/FINE CORSA,1910,44.422630,8.972163
1911,BOLZANETO 1/ZAMPERINI,1911,44.456223,8.903164
1912,BOLZANETO 2/CHIESA,1912,44.459145,8.902370
1913,MARITANO 1/TEGLIA,1913,44.453049,8.895935
1914,MARITANO 2/AUTOSTRADA,1914,44.452908,8.897048
1915,MARITANO 3/ORTIGARA,1915,44.452282,8.899220
1916,MARITANO 4/CAMPO SPORTIVO,1916,44.451969,8.903120
1917,MARITANO 5/,1917,44.451626,8.906194
1918,MARITANO 6/CECHOV,1918,44.453064,8.905706
1919,MARITANO 8/BROCCHI,1919,44.453426,8.907843
1920,MARITANO 9/VIGLIERO,1920,44.451164,8.908801
1922,LINNEO 2/FERMI,1922,44.447899,8.908235
1923,LINNEO 3/BIZET,1923,44.447960,8.906965
1924,LINNEO 4/SCUOLE,1924,44.447655,8.903861
1925,LINNEO 6/ALBINONI,1925,44.444340,8.901293
1926,LINNEO 7/RESPIGHI,1926,44.443096,8.900593
1927,WAGNER/CIMITERO DI RIVAROLO,1927,44.442131,8.903508
1928,CAMBIASO 1/VEZZANI,1928,44.438358,8.896590
1929,CAMBIASO 2/CHIESA DI RIVAROLO,1929,44.438496,8.893707
1930,CAMBIASO 3/,1930,44.438984,8.895321
1931,CAMBIASO 4/LINNEO,1931,44.440304,8.896981
1932,CAMBIASO 5/OSPEDALE CELESIA,1932,44.439857,8.894859
1933,CAMBIASO 6/,1933,44.440792,8.895307
1934,CAMBIASO 7/TOFANE,1934,44.441475,8.896548
1935,CAMBIASO 8/RICCIOTTI,1935,44.442017,8.897326
1936,CAMBIASO 9/BRIGNOLE,1936,44.444439,8.899073
1937,CAMBIASO 10/,1937,44.446056,8.900422
1938,CAMBIASO 12/COSTA DI TEGLIA,1938,44.447777,8.901809
1939,CAMBIASO 13/S.G. BATTISTA,1939,44.449543,8.906382
1940,CAMBIASO 14/CANEVA,1940,44.450169,8.909333
1941,CAMBIASO 15/KASMAN,1941,44.449665,8.913004
1942,CAMBIASO 16/CANEVA ALTA,1942,44.448174,8.913508
1943,CAMBIASO 17/CANDIA,1943,44.448387,8.916553
1944,CAMBIASO 18/SOLEGGIATA,1944,44.449234,8.918234
1945,CAMBIASO 19/,1945,44.448380,8.919820
1946,CAMBIASO 20/,1946,44.448673,8.924253
1947,BEGATO/CAPOLINEA,1947,44.447933,8.926058
1948,CAMBIASO 1/,1948,44.448990,8.923911
1949,CAMBIASO 2/,1949,44.448433,8.919704
1950,CAMBIASO 3/SOLEGGIATA,1950,44.449078,8.918896
1951,CAMBIASO 4/CANDIA,1951,44.448456,8.916584
1952,CAMBIASO 5/CANEVA ALTA,1952,44.448227,8.913658
1953,CAMBIASO 6/KASMAN,1953,44.449932,8.912970
1954,CAMBIASO 7/CANEVA,1954,44.450188,8.908340
1955,CAMBIASO 8/S.G. BATTISTA,1955,44.449768,8.906847
1956,CAMBIASO 9/COSTA DI TEGLIA,1956,44.447857,8.901742
1957,CAMBIASO 11/,1957,44.445919,8.900137
1958,CAMBIASO 12/BRIGNOLE,1958,44.444580,8.898998
1959,CAMBIASO 13/RICCIOTTI,1959,44.442223,8.897352
1960,CAMBIASO 14/TOFANE,1960,44.441494,8.896400
1961,CAMBIASO 15/,1961,44.440613,8.894921
1962,CAMBIASO 16/OSPEDALE CELESIA,1962,44.439865,8.894647
1963,CAMBIASO 17/LINNEO,1963,44.440353,8.896902
1964,CAMBIASO 18/,1964,44.439022,8.895036
1965,CAMBIASO 19/CHIESA DI RIVAROLO,1965,44.438297,8.893769
1966,CAMBIASO 20/VEZZANI,1966,44.438076,8.896672
1967,BROCCHI/CAPOLINEA,1967,44.453732,8.901760
1968,BROCCHI 1/PINOLLA,1968,44.454163,8.904649
1969,BROCCHI 2/ACQUAMARSA,1969,44.453861,8.907123
1970,BROCCHI 1/ACQUAMARSA,1970,44.453972,8.907075
1971,BROCCHI 2/PINOLLA,1971,44.454285,8.904743
1972,CAMPORA/CAPOLINEA,1972,44.457287,8.925783
1973,CHIESA GEMINIANO 1/,1973,44.459206,8.923295
1974,CHIESA GEMINIANO 2/,1974,44.459450,8.919712
1975,CHIESA GEMINIANO 3/,1975,44.458466,8.921845
1976,CHIESA GEMINIANO 4/,1976,44.457317,8.921120
1977,CHIESA GEMINIANO 5/FERRARI,1977,44.458477,8.916361
1978,CHIESA GEMINIANO 6/SCUOLA,1978,44.457642,8.914455
1979,CHIESA GEMINIANO 7/,1979,44.457779,8.913183
1980,CHIESA GEMINIANO 8/,1980,44.456909,8.913697
1981,CHIESA GEMINIANO 9/CHIAPPERINO,1981,44.456123,8.916209
1982,CHIESA GEMINIANO 10/,1982,44.455654,8.912835
1983,CHIESA GEMINIANO 11/,1983,44.456367,8.910095
1984,GEMINIANO 1/PINOLLA,1984,44.456081,8.906583
1985,GEMINIANO 2/BRASILE,1985,44.455837,8.905033
1987,GIRO DEL VENTO/GEMINIANO,1987,44.455330,8.903216
1988,GEMINIANO 2/PINOLLA,1988,44.456066,8.907080
1989,CHIESA GEMINIANO 1/,1989,44.456348,8.910399
1990,CHIESA GEMINIANO 2/,1990,44.455578,8.913056
1991,CHIESA GEMINIANO 3/CHIAPPERINO,1991,44.456154,8.916046
1992,CHIESA GEMINIANO 4/,1992,44.456959,8.913578
1993,CHIESA GEMINIANO 5/,1993,44.457531,8.913424
1994,CHIESA GEMINIANO 6/SCUOLA,1994,44.457855,8.914290
1995,CHIESA GEMINIANO 7/FERRARI,1995,44.458488,8.916557
1996,CHIESA GEMINIANO 8/,1996,44.457249,8.920976
1997,CHIESA GEMINIANO 9/,1997,44.458843,8.922078
1998,CHIESA GEMINIANO 10/,1998,44.459560,8.919611
1999,CHIESA GEMINIANO 11/,1999,44.459339,8.923324
2000,CHIESA GEMINIANO/CAPOLINEA,2000,44.458397,8.916312
2001,CHIESA DI MOREGO/CAPOLINEA,2001,44.477158,8.909176
2002,MOREGO 2/,2002,44.475285,8.907623
2003,MOREGO 4/BORNETO,2003,44.471668,8.904445
2004,GEMINIANO 1/BRASILE,2004,44.455769,8.905016
2005,SAN BIAGIO 3/,2005,44.475307,8.895311
2006,SAN BIAGIO 4/,2006,44.478783,8.890780
2007,SAN BIAGIO 5/CHIESA,2007,44.481781,8.890920
2008,SAN BIAGIO/CAPOLINEA,2008,44.483887,8.890389
2009,SAN BIAGIO 1/CHIESA,2009,44.481956,8.890649
2010,SAN BIAGIO 2/,2010,44.478519,8.890667
2011,SAN BIAGIO 3/,2011,44.475208,8.895436
2012,MOREGO 1/MORIGALLO,2012,44.470749,8.903992
2013,MOREGO 3/BORNETO,2013,44.471897,8.904993
2014,MOREGO 5/,2014,44.475170,8.907721
2015,MOREGO 7/CHIESA,2015,44.477127,8.909251
2016,MOREGO 8/PORCILE,2016,44.477970,8.909272
2018,FRA' PANTALEO/BOLZANETO FS,2018,44.459202,8.902145
2019,N.S. GUARDIA/BOLZANETO FS,2019,44.459309,8.899013
2020,SPINOLA/BASSI,2020,44.421558,8.925821
2021,SARDORELLA 2/MAFFEI,2021,44.470142,8.908094
2022,SARDORELLA 3/BOCCHETTINA,2022,44.471249,8.909385
2023,SARDORELLA 4/PONTE CIAI,2023,44.473598,8.912258
2024,SARDORELLA 5/BELGRANO,2024,44.474834,8.914808
2025,BELGRANO 1/SOCIETA' OPERAIA,2025,44.473667,8.916162
2026,BELGRANO 2/,2026,44.471706,8.917353
2027,BELGRANO 3/,2027,44.472984,8.918629
2028,CHIESA DI CREMENO/CAPOLINEA,2028,44.472809,8.918375
2029,BELGRANO 1/,2029,44.473072,8.918524
2030,BELGRANO 2/,2030,44.471916,8.917185
2031,BELGRANO 3/SOCIETA' OPERAIA,2031,44.473923,8.916027
2032,BELGRANO 4/SARDORELLA,2032,44.474678,8.915933
2033,PONTE CIAI/SARDORELLA,2033,44.474655,8.913335
2036,PAGANINI/PONTE CAFFARO,2036,44.415966,8.935186
2037,PIAZZA DANTE/FIESCHI,2037,44.405014,8.936246
2038,N.S. DEL GAZZO/CAPOLINEA,2038,44.442516,8.847067
2040,ALLENDE 2/,2040,44.451828,8.974483
2041,ALLENDE 3/SCUOLE,2041,44.453011,8.975588
2043,MOLASSANA/CAPOLINEA,2043,44.454327,8.979927
2044,OPISSO 2/PIANDILUCCO,2044,44.426720,8.819656
2045,MOLASSANA/CAPOLINEA,2045,44.454353,8.979850
2046,MOLASSANA/CAPOLINEA,2046,44.454300,8.979935
2047,FONTANEGLI/CHIESA,2047,44.443954,9.026092
2048,ADAMOLI 4/MERELLO,2048,44.448059,8.972253
2049,LODI 9/,2049,44.441853,8.961016
2050,DINEGRO/CAPOLINEA,2050,44.413017,8.909896
2051,SAN TEODORO/FASSOLO,2051,44.414333,8.912640
2052,ASILO GARBARINO 1/CHIABRERA,2052,44.415569,8.913035
2053,ASILO GARBARINO 3/,2053,44.416145,8.912539
2054,ASILO GARBARINO 4/FORLI',2054,44.416283,8.912188
2055,ASILO GARBARINO/CAPOLINEA,2055,44.418079,8.911858
2056,ASILO GARBARINO 2/FORLI',2056,44.416264,8.912272
2057,ASILO GARBARINO 3/,2057,44.416161,8.912692
2058,ASILO GARBARINO 5/CHIABRERA,2058,44.415455,8.913085
2059,PESTARINO/CAPOLINEA,2059,44.420010,8.909605
2060,BIANCO 1/,2060,44.425476,8.910438
2061,BIANCO 2/,2061,44.427662,8.908705
2062,BIANCO 3/SAN MARINO,2062,44.428658,8.907954
2063,BIANCO 5/MURA DI GRANAROLO,2063,44.427555,8.906131
2064,MURA DI GRANAROLO 1/BIANCO,2064,44.427086,8.905504
2065,MURA DI GRANAROLO 2/BEGATO,2065,44.429428,8.908295
2066,PIANI DI FREGOSO 1/FORTI,2066,44.433167,8.912738
2067,PIANI DI FREGOSO 2/,2067,44.434410,8.913066
2068,PIANI DI FREGOSO 3/,2068,44.436283,8.915640
2069,FREGOSO/CAPOLINEA,2069,44.437386,8.916805
2070,PIANI DI FREGOSO 1/,2070,44.436188,8.915479
2071,PIANI DI FREGOSO 2/,2071,44.434353,8.912988
2072,PIANI DI FREGOSO 3/FORTI,2072,44.432941,8.912683
2073,MURA DI GRANAROLO 1/BEGATO,2073,44.429512,8.908501
2074,MURA DI GRANAROLO 2/BIANCO,2074,44.427139,8.905388
2075,BIANCO 6/MURA DI GRANAROLO,2075,44.427601,8.906226
2076,BIANCO 7/SAN MARINO,2076,44.428398,8.908096
2077,BIANCO 8/,2077,44.427402,8.908806
2078,BIANCO 9/,2078,44.425541,8.910361
2079,GRANAROLO/,2079,44.424793,8.911057
2081,BRACELLI 1/SCALINATA BRACELLI,2081,44.417374,8.958028
2082,BRACELLI 2/LAMBOGLIA,2082,44.418240,8.960944
2083,BRACELLI 3/CAPRIOLO,2083,44.418728,8.963428
2084,BRACELLI 4/COPPEDE',2084,44.418819,8.961812
2085,BRACELLI 5/SALITA DELL'AQUILA,2085,44.419628,8.958527
2086,BRACELLI 6/ROBINO,2086,44.422123,8.959035
2087,LORIA 1/MAGRETTI,2087,44.420918,8.959151
2088,LORIA 2/FEA,2088,44.422691,8.960566
2089,LORIA 3/FRATELLI CERVI,2089,44.421688,8.960845
2090,LORIA 4/BISCIONE 1,2090,44.424473,8.961905
2091,LORIA 5/BISCIONE 2,2091,44.425129,8.959548
2092,LORIA 6/BISCIONE 3,2092,44.424171,8.957495
2093,FEA 1/BISCIONE 4,2093,44.423779,8.954932
2094,FEA 2/BISCIONE 5,2094,44.422886,8.956103
2095,FEA 3/BISCIONE 6,2095,44.424206,8.958561
2096,FEA 4/EMERY,2096,44.424683,8.960395
2097,FEA 5/LORIA,2097,44.423298,8.960949
2098,BRACELLI 1/ROBINO,2098,44.421921,8.958853
2099,BRACELLI 2/SALITA DELL'AQUILA,2099,44.419239,8.958391
2100,BRACELLI 3/COPPEDE',2100,44.418728,8.962185
2101,BRACELLI 4/CAPRIOLO,2101,44.418495,8.962914
2102,BRACELLI 5/LAMBOGLIA,2102,44.418316,8.960719
2103,BRACELLI 6/PASSO BRACELLI,2103,44.417755,8.957682
2104,CHIESA SAN CIPRIANO/,2104,44.498386,8.913112
2105,CHIESA SAN CIPRIANO/,2105,44.498436,8.913197
2106,ITALIA 6/BOCCADASSE,2106,44.389885,8.972248
2107,MOREGO 3/IIT,2107,44.474720,8.906898
2108,MOREGO 4/IIT,2108,44.474583,8.906864
2110,VOLTRI FS/CAPOLINEA,2110,44.428490,8.759907
2111,FIRENZE 1/CARBONARA,2111,44.415230,8.933038
2112,STROZZI/FIRENZE,2112,44.421383,8.930343
2113,STALLO 1/GUIDOBONO,2113,44.422173,8.930127
2114,AUSONIA/,2114,44.422359,8.931610
2115,STALLO 2/AUSONIA,2115,44.423878,8.929710
2116,STALLO 4/AUSONIA,2116,44.422794,8.930261
2117,STROZZI/FIRENZE,2117,44.421272,8.930229
2118,FEREGGIANO 2/BIGA,2118,44.416649,8.960526
2119,BIGA 1/,2119,44.416042,8.959839
2120,BIGA 2/ONORATO,2120,44.415874,8.961363
2121,BIGA 3/MASINA,2121,44.415527,8.960475
2122,BIGA 4/BELLOTTI,2122,44.414814,8.959705
2123,AMARENA 1/SALITA DELL'ORSO,2123,44.413982,8.959078
2125,MARCHINI 2/AYROLI,2125,44.413048,8.957347
2126,AYROLI/PAVERANO,2126,44.411228,8.956182
2127,GALILEO FERRARIS/SCUOLE,2127,44.416496,8.957611
2128,MARASSI/ROSMINI,2128,44.417366,8.955099
2129,ROBINO 2/,2129,44.419903,8.956781
2130,ROBINO 3/ZENA,2130,44.421371,8.957551
2131,ROBINO 4/,2131,44.420879,8.956716
2132,ROBINO 5/,2132,44.420357,8.955597
2133,ROBINO 6/FARMACIA,2133,44.421120,8.956238
2134,ROBINO 7/GIGLIOLI,2134,44.422691,8.957238
2135,ROBINO 8/,2135,44.423492,8.958801
2136,ROBINO 9/BRACELLI,2136,44.423103,8.959872
2137,IMPERIALE/CAPOLINEA,2137,44.411423,8.963868
2138,IMPERIALE 1/FASSICOMO,2138,44.410381,8.962531
2139,DONAVER 1/IMPERIALE,2139,44.410072,8.961068
2140,DONAVER 2/FERRETTO,2140,44.410992,8.960342
2141,FERRETTO/SAVELLI,2141,44.412090,8.960930
2142,TORTI/TERRALBA,2142,44.407429,8.959438
2143,D'ALBERTIS 1/REVELLI,2143,44.408493,8.957760
2144,SOLARI/SAVELLI,2144,44.412296,8.958915
2145,DONAVER 1/BOZZANO,2145,44.411076,8.959371
2146,DONAVER 2/N.S. DEL MONTE,2146,44.409504,8.959846
2147,DONAVER 3/SAVELLI,2147,44.410969,8.959875
2148,DONAVER 4/FERRETTO,2148,44.410725,8.960301
2149,DONAVER 5/IMPERIALE,2149,44.409615,8.961349
